[
  {
    "lat": 37.79593,
    "lng": -122.396468,
    "year": 2013,
    "locality": "RUSS BRIGHT PARK (formerly Ferry / Sue Bierman Park)"
  },
  {
    "lat": 37.764744,
    "lng": -122.4390221,
    "year": 2009,
    "locality": "Corona Heights Park"
  },
  {
    "lat": 37.764744,
    "lng": -122.4390221,
    "year": 2009,
    "locality": "Corona Heights Park"
  },
  {
    "lat": 37.79593,
    "lng": -122.396468,
    "year": 2021,
    "locality": "RUSS BRIGHT PARK (formerly Ferry / Sue Bierman Park)"
  },
  {
    "lat": 37.8071054,
    "lng": -122.4264479,
    "year": 2008,
    "locality": "Fort Mason by Van Ness"
  },
  {
    "lat": 37.8021464,
    "lng": -122.4187446,
    "year": 2008,
    "locality": "Lombard St, San Francisco"
  },
  {
    "lat": 37.8051812,
    "lng": -122.4285507,
    "year": 2025,
    "locality": "Fort Mason"
  },
  {
    "lat": 37.79593,
    "lng": -122.396468,
    "year": 2009,
    "locality": "RUSS BRIGHT PARK (formerly Ferry / Sue Bierman Park)"
  },
  {
    "lat": 37.79593,
    "lng": -122.396468,
    "year": 2008,
    "locality": "RUSS BRIGHT PARK (formerly Ferry / Sue Bierman Park)"
  },
  {
    "lat": 37.8051812,
    "lng": -122.4285507,
    "year": 2009,
    "locality": "Fort Mason"
  },
  {
    "lat": 37.7395667,
    "lng": -122.4412966,
    "year": 2009,
    "locality": "Glen Canyon Park"
  },
  {
    "lat": 37.764744,
    "lng": -122.4390221,
    "year": 2009,
    "locality": "Corona Heights Park"
  },
  {
    "lat": 37.764744,
    "lng": -122.4390221,
    "year": 2009,
    "locality": "Corona Heights Park"
  },
  {
    "lat": 37.79593,
    "lng": -122.396468,
    "year": 2011,
    "locality": "RUSS BRIGHT PARK (formerly Ferry / Sue Bierman Park)"
  },
  {
    "lat": 37.79593,
    "lng": -122.396468,
    "year": 2023,
    "locality": "RUSS BRIGHT PARK (formerly Ferry / Sue Bierman Park)"
  },
  {
    "lat": 37.79593,
    "lng": -122.396468,
    "year": 2023,
    "locality": "RUSS BRIGHT PARK (formerly Ferry / Sue Bierman Park)"
  },
  {
    "lat": 37.79593,
    "lng": -122.396468,
    "year": 2024,
    "locality": "RUSS BRIGHT PARK (formerly Ferry / Sue Bierman Park)"
  },
  {
    "lat": 37.79546,
    "lng": -122.402163,
    "year": 2024,
    "locality": "Redwood Garden/Transamerica Bldg. San Francisco US-CA 37.79546, -122.40216"
  },
  {
    "lat": 37.7952236,
    "lng": -122.3942045,
    "year": 2024,
    "locality": "San Francisco Ferry Building"
  },
  {
    "lat": 37.79593,
    "lng": -122.396468,
    "year": 2015,
    "locality": "RUSS BRIGHT PARK (formerly Ferry / Sue Bierman Park)"
  },
  {
    "lat": 37.7681705,
    "lng": -122.4185649,
    "year": 2007,
    "locality": "B Home"
  },
  {
    "lat": 37.7903622,
    "lng": -122.4581351,
    "year": 2023,
    "locality": "stakeout Least Flycatcher, Presidio (2020)"
  },
  {
    "lat": 37.7675937,
    "lng": -122.4688053,
    "year": 2023,
    "locality": "Golden Gate Park--Arboretum (San Francisco Botanical Garden)"
  },
  {
    "lat": 37.7914728,
    "lng": -122.4273491,
    "year": 2023,
    "locality": "Lafayette Park (SF Co.)"
  },
  {
    "lat": 37.764744,
    "lng": -122.4390221,
    "year": 2023,
    "locality": "Corona Heights Park"
  },
  {
    "lat": 37.7952032,
    "lng": -122.462883,
    "year": 2023,
    "locality": "Presidio--general (use for long traveling checklists encompassing multiple hotspots)"
  },
  {
    "lat": 37.7970641,
    "lng": -122.4556357,
    "year": 2023,
    "locality": "Presidio--Tennessee Hollow"
  },
  {
    "lat": 37.8051812,
    "lng": -122.4285507,
    "year": 2023,
    "locality": "Fort Mason"
  },
  {
    "lat": 37.764744,
    "lng": -122.4390221,
    "year": 2023,
    "locality": "Corona Heights Park"
  },
  {
    "lat": 37.7675937,
    "lng": -122.4688053,
    "year": 2023,
    "locality": "Golden Gate Park--Arboretum (San Francisco Botanical Garden)"
  },
  {
    "lat": 37.7952032,
    "lng": -122.462883,
    "year": 2023,
    "locality": "Presidio--general (use for long traveling checklists encompassing multiple hotspots)"
  },
  {
    "lat": 37.8051812,
    "lng": -122.4285507,
    "year": 2023,
    "locality": "Fort Mason"
  },
  {
    "lat": 37.8051812,
    "lng": -122.4285507,
    "year": 2023,
    "locality": "Fort Mason"
  },
  {
    "lat": 37.8051812,
    "lng": -122.4285507,
    "year": 2023,
    "locality": "Fort Mason"
  },
  {
    "lat": 37.8051812,
    "lng": -122.4285507,
    "year": 2023,
    "locality": "Fort Mason"
  },
  {
    "lat": 37.8051812,
    "lng": -122.4285507,
    "year": 2023,
    "locality": "Fort Mason"
  },
  {
    "lat": 37.8051812,
    "lng": -122.4285507,
    "year": 2023,
    "locality": "Fort Mason"
  },
  {
    "lat": 37.7952032,
    "lng": -122.462883,
    "year": 2023,
    "locality": "Presidio--general (use for long traveling checklists encompassing multiple hotspots)"
  },
  {
    "lat": 37.7926519,
    "lng": -122.4564643,
    "year": 2023,
    "locality": "Presidio--El Polin Springs & Inspiration Point"
  },
  {
    "lat": 37.7926519,
    "lng": -122.4564643,
    "year": 2023,
    "locality": "Presidio--El Polin Springs & Inspiration Point"
  },
  {
    "lat": 37.8051812,
    "lng": -122.4285507,
    "year": 2023,
    "locality": "Fort Mason"
  },
  {
    "lat": 37.8051812,
    "lng": -122.4285507,
    "year": 2023,
    "locality": "Fort Mason"
  },
  {
    "lat": 37.8051812,
    "lng": -122.4285507,
    "year": 2021,
    "locality": "Fort Mason"
  },
  {
    "lat": 37.8051812,
    "lng": -122.4285507,
    "year": 2021,
    "locality": "Fort Mason"
  },
  {
    "lat": 37.8051812,
    "lng": -122.4285507,
    "year": 2021,
    "locality": "Fort Mason"
  },
  {
    "lat": 37.7998854,
    "lng": -122.4486893,
    "year": 2021,
    "locality": "Presidio--Letterman Digital Arts Center"
  },
  {
    "lat": 37.759806,
    "lng": -122.3992409,
    "year": 2021,
    "locality": "Potrero Hill home"
  },
  {
    "lat": 37.8051812,
    "lng": -122.4285507,
    "year": 2021,
    "locality": "Fort Mason"
  },
  {
    "lat": 37.7586625,
    "lng": -122.4559844,
    "year": 2021,
    "locality": "Mt. Sutro OSP"
  },
  {
    "lat": 37.7686349,
    "lng": -122.4749326,
    "year": 2021,
    "locality": "Golden Gate Park--Blue Heron Lake & Strawberry Hill"
  },
  {
    "lat": 37.7794664,
    "lng": -122.4520683,
    "year": 2021,
    "locality": "USF--Lone Mountain Campus"
  },
  {
    "lat": 37.8051812,
    "lng": -122.4285507,
    "year": 2023,
    "locality": "Fort Mason"
  },
  {
    "lat": 37.7675937,
    "lng": -122.4688053,
    "year": 2023,
    "locality": "Golden Gate Park--Arboretum (San Francisco Botanical Garden)"
  },
  {
    "lat": 37.764744,
    "lng": -122.4390221,
    "year": 2023,
    "locality": "Corona Heights Park"
  },
  {
    "lat": 37.770172,
    "lng": -122.4748564,
    "year": 2023,
    "locality": "Golden Gate Park--Log Cabin Trail"
  },
  {
    "lat": 37.8051812,
    "lng": -122.4285507,
    "year": 2023,
    "locality": "Fort Mason"
  },
  {
    "lat": 37.7734998,
    "lng": -122.4606466,
    "year": 2023,
    "locality": "Golden Gate Park--Coon Hollow - east oak woodlands"
  },
  {
    "lat": 37.776244,
    "lng": -122.4355888,
    "year": 2023,
    "locality": "Alamo Square"
  },
  {
    "lat": 37.7952032,
    "lng": -122.462883,
    "year": 2023,
    "locality": "Presidio--general (use for long traveling checklists encompassing multiple hotspots)"
  },
  {
    "lat": 37.7207629,
    "lng": -122.418251,
    "year": 2023,
    "locality": "McLaren Park - for long traveling lists- use more specific hotspot where appropriate"
  },
  {
    "lat": 37.8032484,
    "lng": -122.4060202,
    "year": 2023,
    "locality": "Telegraph Hill"
  },
  {
    "lat": 37.7926519,
    "lng": -122.4564643,
    "year": 2023,
    "locality": "Presidio--El Polin Springs & Inspiration Point"
  },
  {
    "lat": 37.8056193,
    "lng": -122.447281,
    "year": 2023,
    "locality": "Little Marina Green Mudflats"
  },
  {
    "lat": 37.7926519,
    "lng": -122.4564643,
    "year": 2023,
    "locality": "Presidio--El Polin Springs & Inspiration Point"
  },
  {
    "lat": 37.7914728,
    "lng": -122.4273491,
    "year": 2023,
    "locality": "Lafayette Park (SF Co.)"
  },
  {
    "lat": 37.7926519,
    "lng": -122.4564643,
    "year": 2023,
    "locality": "Presidio--El Polin Springs & Inspiration Point"
  },
  {
    "lat": 37.7675937,
    "lng": -122.4688053,
    "year": 2023,
    "locality": "Golden Gate Park--Arboretum (San Francisco Botanical Garden)"
  },
  {
    "lat": 37.7207629,
    "lng": -122.418251,
    "year": 2023,
    "locality": "McLaren Park - for long traveling lists- use more specific hotspot where appropriate"
  },
  {
    "lat": 37.764744,
    "lng": -122.4390221,
    "year": 2023,
    "locality": "Corona Heights Park"
  },
  {
    "lat": 37.7970641,
    "lng": -122.4556357,
    "year": 2023,
    "locality": "Presidio--Tennessee Hollow"
  },
  {
    "lat": 37.7675937,
    "lng": -122.4688053,
    "year": 2023,
    "locality": "Golden Gate Park--Arboretum (San Francisco Botanical Garden)"
  },
  {
    "lat": 37.8042741,
    "lng": -122.4211049,
    "year": 2023,
    "locality": "Francisco Park (aka Russian Hill Park and Open Space)"
  },
  {
    "lat": 37.7913106,
    "lng": -122.3924094,
    "year": 2023,
    "locality": "Bay to Breakers"
  },
  {
    "lat": 37.8051812,
    "lng": -122.4285507,
    "year": 2023,
    "locality": "Fort Mason"
  },
  {
    "lat": 37.764744,
    "lng": -122.4390221,
    "year": 2023,
    "locality": "Corona Heights Park"
  },
  {
    "lat": 37.7949599,
    "lng": -122.405179,
    "year": 2023,
    "locality": "Portsmouth Square"
  },
  {
    "lat": 37.8051812,
    "lng": -122.4285507,
    "year": 2023,
    "locality": "Fort Mason"
  },
  {
    "lat": 37.8051812,
    "lng": -122.4285507,
    "year": 2023,
    "locality": "Fort Mason"
  },
  {
    "lat": 37.8051812,
    "lng": -122.4285507,
    "year": 2023,
    "locality": "Fort Mason"
  },
  {
    "lat": 37.7926519,
    "lng": -122.4564643,
    "year": 2023,
    "locality": "Presidio--El Polin Springs & Inspiration Point"
  },
  {
    "lat": 37.7429271,
    "lng": -122.413289,
    "year": 2023,
    "locality": "Bernal Hill"
  },
  {
    "lat": 37.8051812,
    "lng": -122.4285507,
    "year": 2023,
    "locality": "Fort Mason"
  },
  {
    "lat": 37.776179,
    "lng": -122.431313,
    "year": 2023,
    "locality": "727 Fillmore St, San Francisco US-CA"
  },
  {
    "lat": 37.764744,
    "lng": -122.4390221,
    "year": 2023,
    "locality": "Corona Heights Park"
  },
  {
    "lat": 37.7926519,
    "lng": -122.4564643,
    "year": 2023,
    "locality": "Presidio--El Polin Springs & Inspiration Point"
  },
  {
    "lat": 37.7926519,
    "lng": -122.4564643,
    "year": 2023,
    "locality": "Presidio--El Polin Springs & Inspiration Point"
  },
  {
    "lat": 37.8051812,
    "lng": -122.4285507,
    "year": 2023,
    "locality": "Fort Mason"
  },
  {
    "lat": 37.7735218,
    "lng": -122.3948193,
    "year": 2023,
    "locality": "Mission Creek (SF Co.)"
  },
  {
    "lat": 37.8010359,
    "lng": -122.4101454,
    "year": 2023,
    "locality": "Washington Square Park"
  },
  {
    "lat": 37.8051812,
    "lng": -122.4285507,
    "year": 2023,
    "locality": "Fort Mason"
  },
  {
    "lat": 37.7960445,
    "lng": -122.4492059,
    "year": 2023,
    "locality": "Presidio--Simonds Loop"
  },
  {
    "lat": 37.8051812,
    "lng": -122.4285507,
    "year": 2023,
    "locality": "Fort Mason"
  },
  {
    "lat": 37.7675937,
    "lng": -122.4688053,
    "year": 2023,
    "locality": "Golden Gate Park--Arboretum (San Francisco Botanical Garden)"
  },
  {
    "lat": 37.806529,
    "lng": -122.4393225,
    "year": 2023,
    "locality": "Marina Green"
  },
  {
    "lat": 37.8051812,
    "lng": -122.4285507,
    "year": 2023,
    "locality": "Fort Mason"
  },
  {
    "lat": 37.7675937,
    "lng": -122.4688053,
    "year": 2023,
    "locality": "Golden Gate Park--Arboretum (San Francisco Botanical Garden)"
  },
  {
    "lat": 37.8051812,
    "lng": -122.4285507,
    "year": 2023,
    "locality": "Fort Mason"
  },
  {
    "lat": 37.7600112,
    "lng": -122.4280143,
    "year": 2023,
    "locality": "Mission Dolores Park"
  },
  {
    "lat": 37.8051812,
    "lng": -122.4285507,
    "year": 2023,
    "locality": "Fort Mason"
  },
  {
    "lat": 37.7952236,
    "lng": -122.3942045,
    "year": 2023,
    "locality": "San Francisco Ferry Building"
  },
  {
    "lat": 37.7219532,
    "lng": -122.4144256,
    "year": 2023,
    "locality": "McLaren Park--McNab Pond"
  },
  {
    "lat": 37.8051812,
    "lng": -122.4285507,
    "year": 2023,
    "locality": "Fort Mason"
  },
  {
    "lat": 37.8051812,
    "lng": -122.4285507,
    "year": 2023,
    "locality": "Fort Mason"
  },
  {
    "lat": 37.7479595,
    "lng": -122.4687796,
    "year": 2023,
    "locality": "SF City walk"
  },
  {
    "lat": 37.7926519,
    "lng": -122.4564643,
    "year": 2023,
    "locality": "Presidio--El Polin Springs & Inspiration Point"
  },
  {
    "lat": 37.8051812,
    "lng": -122.4285507,
    "year": 2023,
    "locality": "Fort Mason"
  },
  {
    "lat": 37.8051812,
    "lng": -122.4285507,
    "year": 2023,
    "locality": "Fort Mason"
  },
  {
    "lat": 37.764744,
    "lng": -122.4390221,
    "year": 2023,
    "locality": "Corona Heights Park"
  },
  {
    "lat": 37.8051812,
    "lng": -122.4285507,
    "year": 2023,
    "locality": "Fort Mason"
  },
  {
    "lat": 37.7675937,
    "lng": -122.4688053,
    "year": 2023,
    "locality": "Golden Gate Park--Arboretum (San Francisco Botanical Garden)"
  },
  {
    "lat": 37.8051812,
    "lng": -122.4285507,
    "year": 2023,
    "locality": "Fort Mason"
  },
  {
    "lat": 37.8051812,
    "lng": -122.4285507,
    "year": 2023,
    "locality": "Fort Mason"
  },
  {
    "lat": 37.8055611,
    "lng": -122.428299,
    "year": 2023,
    "locality": "Fort Mason"
  },
  {
    "lat": 37.75359,
    "lng": -122.3997223,
    "year": 2023,
    "locality": "Starr King Open Space"
  },
  {
    "lat": 37.8032484,
    "lng": -122.4060202,
    "year": 2023,
    "locality": "Telegraph Hill"
  },
  {
    "lat": 37.8051812,
    "lng": -122.4285507,
    "year": 2023,
    "locality": "Fort Mason"
  },
  {
    "lat": 37.7675937,
    "lng": -122.4688053,
    "year": 2023,
    "locality": "Golden Gate Park--Arboretum (San Francisco Botanical Garden)"
  },
  {
    "lat": 37.79593,
    "lng": -122.396468,
    "year": 2023,
    "locality": "RUSS BRIGHT PARK (formerly Ferry / Sue Bierman Park)"
  },
  {
    "lat": 37.8051812,
    "lng": -122.4285507,
    "year": 2023,
    "locality": "Fort Mason"
  },
  {
    "lat": 37.764744,
    "lng": -122.4390221,
    "year": 2023,
    "locality": "Corona Heights Park"
  },
  {
    "lat": 37.8051812,
    "lng": -122.4285507,
    "year": 2023,
    "locality": "Fort Mason"
  },
  {
    "lat": 37.764744,
    "lng": -122.4390221,
    "year": 2023,
    "locality": "Corona Heights Park"
  },
  {
    "lat": 37.7675937,
    "lng": -122.4688053,
    "year": 2023,
    "locality": "Golden Gate Park--Arboretum (San Francisco Botanical Garden)"
  },
  {
    "lat": 37.8051812,
    "lng": -122.4285507,
    "year": 2023,
    "locality": "Fort Mason"
  },
  {
    "lat": 37.79593,
    "lng": -122.396468,
    "year": 2023,
    "locality": "RUSS BRIGHT PARK (formerly Ferry / Sue Bierman Park)"
  },
  {
    "lat": 37.7352361,
    "lng": -122.418275,
    "year": 2023,
    "locality": "Battery Rao"
  },
  {
    "lat": 37.7207629,
    "lng": -122.418251,
    "year": 2023,
    "locality": "McLaren Park - for long traveling lists- use more specific hotspot where appropriate"
  },
  {
    "lat": 37.7926519,
    "lng": -122.4564643,
    "year": 2023,
    "locality": "Presidio--El Polin Springs & Inspiration Point"
  },
  {
    "lat": 37.8051812,
    "lng": -122.4285507,
    "year": 2023,
    "locality": "Fort Mason"
  },
  {
    "lat": 37.8051812,
    "lng": -122.4285507,
    "year": 2021,
    "locality": "Fort Mason"
  },
  {
    "lat": 37.7974075,
    "lng": -122.4487531,
    "year": 2021,
    "locality": "Presidio--Presidio Social Club"
  },
  {
    "lat": 37.8051812,
    "lng": -122.4285507,
    "year": 2021,
    "locality": "Fort Mason"
  },
  {
    "lat": 37.7255049,
    "lng": -122.4120041,
    "year": 2021,
    "locality": "Portola Neighborhood"
  },
  {
    "lat": 37.7395667,
    "lng": -122.4412966,
    "year": 2021,
    "locality": "Glen Canyon Park"
  },
  {
    "lat": 37.7914728,
    "lng": -122.4273491,
    "year": 2021,
    "locality": "Lafayette Park (SF Co.)"
  },
  {
    "lat": 37.8047658,
    "lng": -122.4562311,
    "year": 2021,
    "locality": "Presidio--Crissy Field Lagoon"
  },
  {
    "lat": 37.7965483,
    "lng": -122.3958809,
    "year": 2021,
    "locality": "San Francisco Embarcadero"
  },
  {
    "lat": 37.7952032,
    "lng": -122.462883,
    "year": 2021,
    "locality": "Presidio--general (use for long traveling checklists encompassing multiple hotspots)"
  },
  {
    "lat": 37.759806,
    "lng": -122.3992409,
    "year": 2021,
    "locality": "Potrero Hill home"
  },
  {
    "lat": 37.7926519,
    "lng": -122.4564643,
    "year": 2021,
    "locality": "Presidio--El Polin Springs & Inspiration Point"
  },
  {
    "lat": 37.8051812,
    "lng": -122.4285507,
    "year": 2021,
    "locality": "Fort Mason"
  },
  {
    "lat": 37.8051812,
    "lng": -122.4285507,
    "year": 2021,
    "locality": "Fort Mason"
  },
  {
    "lat": 37.764744,
    "lng": -122.4390221,
    "year": 2021,
    "locality": "Corona Heights Park"
  },
  {
    "lat": 37.802237,
    "lng": -122.417759,
    "year": 2021,
    "locality": "933\u2013999 Lombard St, San Francisco US-CA (37.8022,-122.4178)"
  },
  {
    "lat": 37.764744,
    "lng": -122.4390221,
    "year": 2021,
    "locality": "Corona Heights Park"
  },
  {
    "lat": 37.7332201,
    "lng": -122.5032556,
    "year": 2021,
    "locality": "San Francisco Zoo"
  },
  {
    "lat": 37.7429271,
    "lng": -122.413289,
    "year": 2021,
    "locality": "Bernal Hill"
  },
  {
    "lat": 37.7352361,
    "lng": -122.418275,
    "year": 2021,
    "locality": "Battery Rao"
  },
  {
    "lat": 37.7708708,
    "lng": -122.4624061,
    "year": 2021,
    "locality": "Golden Gate Park--Lily Pond"
  },
  {
    "lat": 37.7207629,
    "lng": -122.418251,
    "year": 2021,
    "locality": "McLaren Park - for long traveling lists- use more specific hotspot where appropriate"
  },
  {
    "lat": 37.7557582,
    "lng": -122.3966507,
    "year": 2021,
    "locality": "Potrero Hill Rec Center"
  },
  {
    "lat": 37.7352361,
    "lng": -122.418275,
    "year": 2021,
    "locality": "Battery Rao"
  },
  {
    "lat": 37.8051812,
    "lng": -122.4285507,
    "year": 2021,
    "locality": "Fort Mason"
  },
  {
    "lat": 37.775168,
    "lng": -122.433476,
    "year": 2021,
    "locality": "Backyard Garden"
  },
  {
    "lat": 37.7914728,
    "lng": -122.4273491,
    "year": 2021,
    "locality": "Lafayette Park (SF Co.)"
  },
  {
    "lat": 37.7914728,
    "lng": -122.4273491,
    "year": 2021,
    "locality": "Lafayette Park (SF Co.)"
  },
  {
    "lat": 37.805545,
    "lng": -122.426548,
    "year": 2021,
    "locality": "Fort Mason, San Francisco US-CA 37.80554, -122.42655"
  },
  {
    "lat": 37.7926519,
    "lng": -122.4564643,
    "year": 2021,
    "locality": "Presidio--El Polin Springs & Inspiration Point"
  },
  {
    "lat": 37.8051812,
    "lng": -122.4285507,
    "year": 2021,
    "locality": "Fort Mason"
  },
  {
    "lat": 37.7696461,
    "lng": -122.4841261,
    "year": 2021,
    "locality": "Golden Gate Park - long traveling lists - use more specific hotspots where appropriate"
  },
  {
    "lat": 37.8051812,
    "lng": -122.4285507,
    "year": 2021,
    "locality": "Fort Mason"
  },
  {
    "lat": 37.8051812,
    "lng": -122.4285507,
    "year": 2023,
    "locality": "Fort Mason"
  },
  {
    "lat": 37.8051812,
    "lng": -122.4285507,
    "year": 2023,
    "locality": "Fort Mason"
  },
  {
    "lat": 37.7598924,
    "lng": -122.4474978,
    "year": 2023,
    "locality": "Tank Hill Park"
  },
  {
    "lat": 37.8051812,
    "lng": -122.4285507,
    "year": 2023,
    "locality": "Fort Mason"
  },
  {
    "lat": 37.7708844,
    "lng": -122.4638057,
    "year": 2023,
    "locality": "Golden Gate Park--Rhododendron Dell"
  },
  {
    "lat": 37.802367,
    "lng": -122.418181,
    "year": 2023,
    "locality": "North on Leavenworth from Lombard"
  },
  {
    "lat": 37.8051812,
    "lng": -122.4285507,
    "year": 2023,
    "locality": "Fort Mason"
  },
  {
    "lat": 37.8051812,
    "lng": -122.4285507,
    "year": 2023,
    "locality": "Fort Mason"
  },
  {
    "lat": 37.776244,
    "lng": -122.4355888,
    "year": 2023,
    "locality": "Alamo Square"
  },
  {
    "lat": 37.8051812,
    "lng": -122.4285507,
    "year": 2023,
    "locality": "Fort Mason"
  },
  {
    "lat": 37.8051812,
    "lng": -122.4285507,
    "year": 2023,
    "locality": "Fort Mason"
  },
  {
    "lat": 37.79593,
    "lng": -122.396468,
    "year": 2023,
    "locality": "RUSS BRIGHT PARK (formerly Ferry / Sue Bierman Park)"
  },
  {
    "lat": 37.7600112,
    "lng": -122.4280143,
    "year": 2023,
    "locality": "Mission Dolores Park"
  },
  {
    "lat": 37.79593,
    "lng": -122.396468,
    "year": 2023,
    "locality": "RUSS BRIGHT PARK (formerly Ferry / Sue Bierman Park)"
  },
  {
    "lat": 37.764744,
    "lng": -122.4390221,
    "year": 2023,
    "locality": "Corona Heights Park"
  },
  {
    "lat": 37.7720609,
    "lng": -122.4588597,
    "year": 2023,
    "locality": "Golden Gate Park--Conservatory of Flowers"
  },
  {
    "lat": 37.7914728,
    "lng": -122.4273491,
    "year": 2023,
    "locality": "Lafayette Park (SF Co.)"
  },
  {
    "lat": 37.8051812,
    "lng": -122.4285507,
    "year": 2023,
    "locality": "Fort Mason"
  },
  {
    "lat": 37.8051812,
    "lng": -122.4285507,
    "year": 2023,
    "locality": "Fort Mason"
  },
  {
    "lat": 37.7696461,
    "lng": -122.4577332,
    "year": 2023,
    "locality": "Golden Gate Park--Hippie Hill & Tennis Complex"
  },
  {
    "lat": 37.79593,
    "lng": -122.396468,
    "year": 2023,
    "locality": "RUSS BRIGHT PARK (formerly Ferry / Sue Bierman Park)"
  },
  {
    "lat": 37.7395667,
    "lng": -122.4412966,
    "year": 2023,
    "locality": "Glen Canyon Park"
  },
  {
    "lat": 37.7600112,
    "lng": -122.4280143,
    "year": 2023,
    "locality": "Mission Dolores Park"
  },
  {
    "lat": 37.7429271,
    "lng": -122.413289,
    "year": 2023,
    "locality": "Bernal Hill"
  },
  {
    "lat": 37.7598924,
    "lng": -122.4474978,
    "year": 2023,
    "locality": "Tank Hill Park"
  },
  {
    "lat": 37.8051812,
    "lng": -122.4285507,
    "year": 2023,
    "locality": "Fort Mason"
  },
  {
    "lat": 37.7914728,
    "lng": -122.4273491,
    "year": 2023,
    "locality": "Lafayette Park (SF Co.)"
  },
  {
    "lat": 37.7914728,
    "lng": -122.4273491,
    "year": 2023,
    "locality": "Lafayette Park (SF Co.)"
  },
  {
    "lat": 37.7914728,
    "lng": -122.4273491,
    "year": 2023,
    "locality": "Lafayette Park (SF Co.)"
  },
  {
    "lat": 37.7684711,
    "lng": -122.4644451,
    "year": 2023,
    "locality": "Golden Gate Park--Big Rec Ball Fields/Handball Court Oak woodland"
  },
  {
    "lat": 37.8051812,
    "lng": -122.4285507,
    "year": 2023,
    "locality": "Fort Mason"
  },
  {
    "lat": 37.764744,
    "lng": -122.4390221,
    "year": 2023,
    "locality": "Corona Heights Park"
  },
  {
    "lat": 37.8051812,
    "lng": -122.4285507,
    "year": 2023,
    "locality": "Fort Mason"
  },
  {
    "lat": 37.800072,
    "lng": -122.394515,
    "year": 2023,
    "locality": "Pier 7, San Francisco US-CA 37.80007, -122.39452"
  },
  {
    "lat": 37.7207629,
    "lng": -122.418251,
    "year": 2023,
    "locality": "McLaren Park - for long traveling lists- use more specific hotspot where appropriate"
  },
  {
    "lat": 37.795883,
    "lng": -122.399838,
    "year": 2023,
    "locality": "Elevated greenway"
  },
  {
    "lat": 37.8051812,
    "lng": -122.4285507,
    "year": 2023,
    "locality": "Fort Mason"
  },
  {
    "lat": 37.7675937,
    "lng": -122.4688053,
    "year": 2023,
    "locality": "Golden Gate Park--Arboretum (San Francisco Botanical Garden)"
  },
  {
    "lat": 37.7708708,
    "lng": -122.4624061,
    "year": 2023,
    "locality": "Golden Gate Park--Lily Pond"
  },
  {
    "lat": 37.7539752,
    "lng": -122.4477291,
    "year": 2023,
    "locality": "Twin Peaks Natural Area"
  },
  {
    "lat": 37.8051812,
    "lng": -122.4285507,
    "year": 2023,
    "locality": "Fort Mason"
  },
  {
    "lat": 37.7678376,
    "lng": -122.4414012,
    "year": 2023,
    "locality": "Buena Vista Park (SF Co.)"
  },
  {
    "lat": 37.7557582,
    "lng": -122.3966507,
    "year": 2023,
    "locality": "Potrero Hill Rec Center"
  },
  {
    "lat": 37.7952236,
    "lng": -122.3942045,
    "year": 2023,
    "locality": "San Francisco Ferry Building"
  },
  {
    "lat": 37.766605,
    "lng": -122.466735,
    "year": 2023,
    "locality": "San Francisco Botanical Garden, San Francisco US-CA 37.76660, -122.46674"
  },
  {
    "lat": 37.7817,
    "lng": -122.4255848,
    "year": 2023,
    "locality": "Jefferson Square Park"
  },
  {
    "lat": 37.8051812,
    "lng": -122.4285507,
    "year": 2023,
    "locality": "Fort Mason"
  },
  {
    "lat": 37.8051812,
    "lng": -122.4285507,
    "year": 2023,
    "locality": "Fort Mason"
  },
  {
    "lat": 37.7732555,
    "lng": -122.4551675,
    "year": 2023,
    "locality": "Golden Gate Park--McLaren Lodge/Horseshoe Pits/Northeast Entrance"
  },
  {
    "lat": 37.8051812,
    "lng": -122.4285507,
    "year": 2023,
    "locality": "Fort Mason"
  },
  {
    "lat": 37.7914728,
    "lng": -122.4273491,
    "year": 2023,
    "locality": "Lafayette Park (SF Co.)"
  },
  {
    "lat": 37.763488,
    "lng": -122.440694,
    "year": 2023,
    "locality": "20 Vulcan Stairway, San Francisco US-CA 37.76349, -122.44069"
  },
  {
    "lat": 37.8051812,
    "lng": -122.4285507,
    "year": 2023,
    "locality": "Fort Mason"
  },
  {
    "lat": 37.8069333,
    "lng": -122.4282358,
    "year": 2023,
    "locality": "Fisherman's Wharf Hostel"
  },
  {
    "lat": 37.7207629,
    "lng": -122.418251,
    "year": 2023,
    "locality": "McLaren Park - for long traveling lists- use more specific hotspot where appropriate"
  },
  {
    "lat": 37.8051812,
    "lng": -122.4285507,
    "year": 2023,
    "locality": "Fort Mason"
  },
  {
    "lat": 37.8051812,
    "lng": -122.4285507,
    "year": 2023,
    "locality": "Fort Mason"
  },
  {
    "lat": 37.764744,
    "lng": -122.4390221,
    "year": 2023,
    "locality": "Corona Heights Park"
  },
  {
    "lat": 37.764744,
    "lng": -122.4390221,
    "year": 2023,
    "locality": "Corona Heights Park"
  },
  {
    "lat": 37.7598924,
    "lng": -122.4474978,
    "year": 2023,
    "locality": "Tank Hill Park"
  },
  {
    "lat": 37.764744,
    "lng": -122.4390221,
    "year": 2023,
    "locality": "Corona Heights Park"
  },
  {
    "lat": 37.8051812,
    "lng": -122.4285507,
    "year": 2023,
    "locality": "Fort Mason"
  },
  {
    "lat": 37.8051812,
    "lng": -122.4285507,
    "year": 2023,
    "locality": "Fort Mason"
  },
  {
    "lat": 37.8051812,
    "lng": -122.4285507,
    "year": 2023,
    "locality": "Fort Mason"
  },
  {
    "lat": 37.8051812,
    "lng": -122.4285507,
    "year": 2023,
    "locality": "Fort Mason"
  },
  {
    "lat": 37.8051812,
    "lng": -122.4285507,
    "year": 2023,
    "locality": "Fort Mason"
  },
  {
    "lat": 37.8051812,
    "lng": -122.4285507,
    "year": 2023,
    "locality": "Fort Mason"
  },
  {
    "lat": 37.7678376,
    "lng": -122.4414012,
    "year": 2023,
    "locality": "Buena Vista Park (SF Co.)"
  },
  {
    "lat": 37.764744,
    "lng": -122.4390221,
    "year": 2023,
    "locality": "Corona Heights Park"
  },
  {
    "lat": 37.7675937,
    "lng": -122.4688053,
    "year": 2023,
    "locality": "Golden Gate Park--Arboretum (San Francisco Botanical Garden)"
  },
  {
    "lat": 37.8051812,
    "lng": -122.4285507,
    "year": 2023,
    "locality": "Fort Mason"
  },
  {
    "lat": 37.7960445,
    "lng": -122.4492059,
    "year": 2023,
    "locality": "Presidio--Simonds Loop"
  },
  {
    "lat": 37.764744,
    "lng": -122.4390221,
    "year": 2023,
    "locality": "Corona Heights Park"
  },
  {
    "lat": 37.7726823,
    "lng": -122.4569607,
    "year": 2023,
    "locality": "Golden Gate Park--Fuschia Dell"
  },
  {
    "lat": 37.764744,
    "lng": -122.4390221,
    "year": 2023,
    "locality": "Corona Heights Park"
  },
  {
    "lat": 37.8051812,
    "lng": -122.4285507,
    "year": 2023,
    "locality": "Fort Mason"
  },
  {
    "lat": 37.8051812,
    "lng": -122.4285507,
    "year": 2023,
    "locality": "Fort Mason"
  },
  {
    "lat": 37.7696461,
    "lng": -122.4577332,
    "year": 2023,
    "locality": "Golden Gate Park--Hippie Hill & Tennis Complex"
  },
  {
    "lat": 37.8051812,
    "lng": -122.4285507,
    "year": 2023,
    "locality": "Fort Mason"
  },
  {
    "lat": 37.7675937,
    "lng": -122.4688053,
    "year": 2023,
    "locality": "Golden Gate Park--Arboretum (San Francisco Botanical Garden)"
  },
  {
    "lat": 37.7970641,
    "lng": -122.4556357,
    "year": 2023,
    "locality": "Presidio--Tennessee Hollow"
  },
  {
    "lat": 37.8051812,
    "lng": -122.4285507,
    "year": 2023,
    "locality": "Fort Mason"
  },
  {
    "lat": 37.759627,
    "lng": -122.398863,
    "year": 2023,
    "locality": "Potrero Hill home"
  },
  {
    "lat": 37.8051812,
    "lng": -122.4285507,
    "year": 2023,
    "locality": "Fort Mason"
  },
  {
    "lat": 37.8051812,
    "lng": -122.4285507,
    "year": 2023,
    "locality": "Fort Mason"
  },
  {
    "lat": 37.7207629,
    "lng": -122.418251,
    "year": 2023,
    "locality": "McLaren Park - for long traveling lists- use more specific hotspot where appropriate"
  },
  {
    "lat": 37.7675937,
    "lng": -122.4688053,
    "year": 2023,
    "locality": "Golden Gate Park--Arboretum (San Francisco Botanical Garden)"
  },
  {
    "lat": 37.8051812,
    "lng": -122.4285507,
    "year": 2023,
    "locality": "Fort Mason"
  },
  {
    "lat": 37.7675937,
    "lng": -122.4688053,
    "year": 2023,
    "locality": "Golden Gate Park--Arboretum (San Francisco Botanical Garden)"
  },
  {
    "lat": 37.7207629,
    "lng": -122.418251,
    "year": 2023,
    "locality": "McLaren Park - for long traveling lists- use more specific hotspot where appropriate"
  },
  {
    "lat": 37.79162,
    "lng": -122.428659,
    "year": 2023,
    "locality": "Lafayette Park, San Francisco US-CA (37.7916,-122.4287)"
  },
  {
    "lat": 37.8051812,
    "lng": -122.4285507,
    "year": 2023,
    "locality": "Fort Mason"
  },
  {
    "lat": 37.8051812,
    "lng": -122.4285507,
    "year": 2023,
    "locality": "Fort Mason"
  },
  {
    "lat": 37.7675937,
    "lng": -122.4688053,
    "year": 2023,
    "locality": "Golden Gate Park--Arboretum (San Francisco Botanical Garden)"
  },
  {
    "lat": 37.8051812,
    "lng": -122.4285507,
    "year": 2023,
    "locality": "Fort Mason"
  },
  {
    "lat": 37.8064469,
    "lng": -122.449259,
    "year": 2023,
    "locality": "1199 East Beach, San Francisco, California, US (37.806, -122.449)"
  },
  {
    "lat": 37.776244,
    "lng": -122.4355888,
    "year": 2023,
    "locality": "Alamo Square"
  },
  {
    "lat": 37.776244,
    "lng": -122.4355888,
    "year": 2023,
    "locality": "Alamo Square"
  },
  {
    "lat": 37.7926519,
    "lng": -122.4564643,
    "year": 2023,
    "locality": "Presidio--El Polin Springs & Inspiration Point"
  },
  {
    "lat": 37.7586625,
    "lng": -122.4559844,
    "year": 2023,
    "locality": "Mt. Sutro OSP"
  },
  {
    "lat": 37.764744,
    "lng": -122.4390221,
    "year": 2023,
    "locality": "Corona Heights Park"
  },
  {
    "lat": 37.79593,
    "lng": -122.396468,
    "year": 2023,
    "locality": "RUSS BRIGHT PARK (formerly Ferry / Sue Bierman Park)"
  },
  {
    "lat": 37.8051812,
    "lng": -122.4285507,
    "year": 2023,
    "locality": "Fort Mason"
  },
  {
    "lat": 37.7586625,
    "lng": -122.4559844,
    "year": 2023,
    "locality": "Mt. Sutro OSP"
  },
  {
    "lat": 37.7952032,
    "lng": -122.462883,
    "year": 2023,
    "locality": "Presidio--general (use for long traveling checklists encompassing multiple hotspots)"
  },
  {
    "lat": 37.7675937,
    "lng": -122.4688053,
    "year": 2023,
    "locality": "Golden Gate Park--Arboretum (San Francisco Botanical Garden)"
  },
  {
    "lat": 37.7726823,
    "lng": -122.4569607,
    "year": 2023,
    "locality": "Golden Gate Park--Fuschia Dell"
  },
  {
    "lat": 37.7708708,
    "lng": -122.4624061,
    "year": 2023,
    "locality": "Golden Gate Park--Lily Pond"
  },
  {
    "lat": 37.7952032,
    "lng": -122.462883,
    "year": 2023,
    "locality": "Presidio--general (use for long traveling checklists encompassing multiple hotspots)"
  },
  {
    "lat": 37.8051812,
    "lng": -122.4285507,
    "year": 2023,
    "locality": "Fort Mason"
  },
  {
    "lat": 37.7557582,
    "lng": -122.3966507,
    "year": 2023,
    "locality": "Potrero Hill Rec Center"
  },
  {
    "lat": 37.79593,
    "lng": -122.396468,
    "year": 2023,
    "locality": "RUSS BRIGHT PARK (formerly Ferry / Sue Bierman Park)"
  },
  {
    "lat": 37.79593,
    "lng": -122.396468,
    "year": 2023,
    "locality": "RUSS BRIGHT PARK (formerly Ferry / Sue Bierman Park)"
  },
  {
    "lat": 37.759999,
    "lng": -122.453428,
    "year": 2023,
    "locality": "Mt. Sutro--Interior Greenbelt Significant Natural Area"
  },
  {
    "lat": 37.7371541,
    "lng": -122.4201177,
    "year": 2023,
    "locality": "Holly Park"
  },
  {
    "lat": 37.7708844,
    "lng": -122.4638057,
    "year": 2023,
    "locality": "Golden Gate Park--Rhododendron Dell"
  },
  {
    "lat": 37.7926519,
    "lng": -122.4564643,
    "year": 2023,
    "locality": "Presidio--El Polin Springs & Inspiration Point"
  },
  {
    "lat": 37.79593,
    "lng": -122.396468,
    "year": 2023,
    "locality": "RUSS BRIGHT PARK (formerly Ferry / Sue Bierman Park)"
  },
  {
    "lat": 37.7952236,
    "lng": -122.3942045,
    "year": 2023,
    "locality": "San Francisco Ferry Building"
  },
  {
    "lat": 37.8041273,
    "lng": -122.4642633,
    "year": 2023,
    "locality": "Presidio--Crissy Field"
  },
  {
    "lat": 37.7926519,
    "lng": -122.4564643,
    "year": 2023,
    "locality": "Presidio--El Polin Springs & Inspiration Point"
  },
  {
    "lat": 37.8032484,
    "lng": -122.4060202,
    "year": 2023,
    "locality": "Telegraph Hill"
  },
  {
    "lat": 37.7926519,
    "lng": -122.4564643,
    "year": 2023,
    "locality": "Presidio--El Polin Springs & Inspiration Point"
  },
  {
    "lat": 37.7678376,
    "lng": -122.4414012,
    "year": 2023,
    "locality": "Buena Vista Park (SF Co.)"
  },
  {
    "lat": 37.7817,
    "lng": -122.4255848,
    "year": 2023,
    "locality": "Jefferson Square Park"
  },
  {
    "lat": 37.8051812,
    "lng": -122.4285507,
    "year": 2022,
    "locality": "Fort Mason"
  },
  {
    "lat": 37.791032,
    "lng": -122.3887253,
    "year": 2022,
    "locality": "South Beach--Rincon Park & shoreline"
  },
  {
    "lat": 37.7953328,
    "lng": -122.4255348,
    "year": 2022,
    "locality": "Natalie & Warren's"
  },
  {
    "lat": 37.7926519,
    "lng": -122.4564643,
    "year": 2022,
    "locality": "Presidio--El Polin Springs & Inspiration Point"
  },
  {
    "lat": 37.8051812,
    "lng": -122.4285507,
    "year": 2022,
    "locality": "Fort Mason"
  },
  {
    "lat": 37.8051812,
    "lng": -122.4285507,
    "year": 2022,
    "locality": "Fort Mason"
  },
  {
    "lat": 37.7557582,
    "lng": -122.3966507,
    "year": 2022,
    "locality": "Potrero Hill Rec Center"
  },
  {
    "lat": 37.79593,
    "lng": -122.396468,
    "year": 2022,
    "locality": "RUSS BRIGHT PARK (formerly Ferry / Sue Bierman Park)"
  },
  {
    "lat": 37.804272,
    "lng": -122.469695,
    "year": 2022,
    "locality": "The Presidio, San Francisco US-CA 37.80427, -122.46969"
  },
  {
    "lat": 37.8051812,
    "lng": -122.4285507,
    "year": 2022,
    "locality": "Fort Mason"
  },
  {
    "lat": 37.7926519,
    "lng": -122.4564643,
    "year": 2022,
    "locality": "Presidio--El Polin Springs & Inspiration Point"
  },
  {
    "lat": 37.8051812,
    "lng": -122.4285507,
    "year": 2022,
    "locality": "Fort Mason"
  },
  {
    "lat": 37.7960445,
    "lng": -122.4492059,
    "year": 2022,
    "locality": "Presidio--Simonds Loop"
  },
  {
    "lat": 37.8051812,
    "lng": -122.4285507,
    "year": 2022,
    "locality": "Fort Mason"
  },
  {
    "lat": 37.8051812,
    "lng": -122.4285507,
    "year": 2022,
    "locality": "Fort Mason"
  },
  {
    "lat": 37.8051812,
    "lng": -122.4285507,
    "year": 2022,
    "locality": "Fort Mason"
  },
  {
    "lat": 37.768896,
    "lng": -122.471223,
    "year": 2022,
    "locality": "San Francisco Botanical Garden, San Francisco US-CA (37.7689,-122.4712)"
  },
  {
    "lat": 37.8051812,
    "lng": -122.4285507,
    "year": 2022,
    "locality": "Fort Mason"
  },
  {
    "lat": 37.7999966,
    "lng": -122.4564075,
    "year": 2022,
    "locality": "Presidio--Main Post"
  },
  {
    "lat": 37.8051812,
    "lng": -122.4285507,
    "year": 2022,
    "locality": "Fort Mason"
  },
  {
    "lat": 37.7675937,
    "lng": -122.4688053,
    "year": 2022,
    "locality": "Golden Gate Park--Arboretum (San Francisco Botanical Garden)"
  },
  {
    "lat": 37.79593,
    "lng": -122.396468,
    "year": 2022,
    "locality": "RUSS BRIGHT PARK (formerly Ferry / Sue Bierman Park)"
  },
  {
    "lat": 37.805909,
    "lng": -122.427998,
    "year": 2022,
    "locality": "Fort Mason, San Francisco US-CA 37.80591, -122.42800"
  },
  {
    "lat": 37.7675937,
    "lng": -122.4688053,
    "year": 2022,
    "locality": "Golden Gate Park--Arboretum (San Francisco Botanical Garden)"
  },
  {
    "lat": 37.8051812,
    "lng": -122.4285507,
    "year": 2022,
    "locality": "Fort Mason"
  },
  {
    "lat": 37.8051812,
    "lng": -122.4285507,
    "year": 2022,
    "locality": "Fort Mason"
  },
  {
    "lat": 37.7675937,
    "lng": -122.4688053,
    "year": 2022,
    "locality": "Golden Gate Park--Arboretum (San Francisco Botanical Garden)"
  },
  {
    "lat": 37.7914728,
    "lng": -122.4273491,
    "year": 2022,
    "locality": "Lafayette Park (SF Co.)"
  },
  {
    "lat": 37.7207629,
    "lng": -122.418251,
    "year": 2022,
    "locality": "McLaren Park - for long traveling lists- use more specific hotspot where appropriate"
  },
  {
    "lat": 37.7675937,
    "lng": -122.4688053,
    "year": 2022,
    "locality": "Golden Gate Park--Arboretum (San Francisco Botanical Garden)"
  },
  {
    "lat": 37.79593,
    "lng": -122.396468,
    "year": 2022,
    "locality": "RUSS BRIGHT PARK (formerly Ferry / Sue Bierman Park)"
  },
  {
    "lat": 37.7600112,
    "lng": -122.4280143,
    "year": 2022,
    "locality": "Mission Dolores Park"
  },
  {
    "lat": 37.7696461,
    "lng": -122.4841261,
    "year": 2022,
    "locality": "Golden Gate Park - long traveling lists - use more specific hotspots where appropriate"
  },
  {
    "lat": 37.7708708,
    "lng": -122.4624061,
    "year": 2022,
    "locality": "Golden Gate Park--Lily Pond"
  },
  {
    "lat": 37.7557582,
    "lng": -122.3966507,
    "year": 2022,
    "locality": "Potrero Hill Rec Center"
  },
  {
    "lat": 37.7675937,
    "lng": -122.4688053,
    "year": 2022,
    "locality": "Golden Gate Park--Arboretum (San Francisco Botanical Garden)"
  },
  {
    "lat": 37.8051812,
    "lng": -122.4285507,
    "year": 2022,
    "locality": "Fort Mason"
  },
  {
    "lat": 37.8051812,
    "lng": -122.4285507,
    "year": 2022,
    "locality": "Fort Mason"
  },
  {
    "lat": 37.8051812,
    "lng": -122.4285507,
    "year": 2022,
    "locality": "Fort Mason"
  },
  {
    "lat": 37.7752247,
    "lng": -122.4251359,
    "year": 2022,
    "locality": "Hayes Valley Farm"
  },
  {
    "lat": 37.7952032,
    "lng": -122.462883,
    "year": 2022,
    "locality": "Presidio--general (use for long traveling checklists encompassing multiple hotspots)"
  },
  {
    "lat": 37.8051812,
    "lng": -122.4285507,
    "year": 2022,
    "locality": "Fort Mason"
  },
  {
    "lat": 37.7926519,
    "lng": -122.4564643,
    "year": 2022,
    "locality": "Presidio--El Polin Springs & Inspiration Point"
  },
  {
    "lat": 37.8028161,
    "lng": -122.4482489,
    "year": 2022,
    "locality": "Palace of Fine Arts"
  },
  {
    "lat": 37.8051812,
    "lng": -122.4285507,
    "year": 2022,
    "locality": "Fort Mason"
  },
  {
    "lat": 37.7970641,
    "lng": -122.4556357,
    "year": 2022,
    "locality": "Presidio--Tennessee Hollow"
  },
  {
    "lat": 37.8051812,
    "lng": -122.4285507,
    "year": 2022,
    "locality": "Fort Mason"
  },
  {
    "lat": 37.8051812,
    "lng": -122.4285507,
    "year": 2022,
    "locality": "Fort Mason"
  },
  {
    "lat": 37.8047658,
    "lng": -122.4562311,
    "year": 2022,
    "locality": "Presidio--Crissy Field Lagoon"
  },
  {
    "lat": 37.8051812,
    "lng": -122.4285507,
    "year": 2022,
    "locality": "Fort Mason"
  },
  {
    "lat": 37.8051812,
    "lng": -122.4285507,
    "year": 2022,
    "locality": "Fort Mason"
  },
  {
    "lat": 37.7926519,
    "lng": -122.4564643,
    "year": 2022,
    "locality": "Presidio--El Polin Springs & Inspiration Point"
  },
  {
    "lat": 37.7914728,
    "lng": -122.4273491,
    "year": 2022,
    "locality": "Lafayette Park (SF Co.)"
  },
  {
    "lat": 37.8051812,
    "lng": -122.4285507,
    "year": 2022,
    "locality": "Fort Mason"
  },
  {
    "lat": 37.8051812,
    "lng": -122.4285507,
    "year": 2022,
    "locality": "Fort Mason"
  },
  {
    "lat": 37.8051812,
    "lng": -122.4285507,
    "year": 2022,
    "locality": "Fort Mason"
  },
  {
    "lat": 37.7722073,
    "lng": -122.4488926,
    "year": 2022,
    "locality": "Golden Gate Park--Panhandle west of Masonic Ave."
  },
  {
    "lat": 37.8051812,
    "lng": -122.4285507,
    "year": 2022,
    "locality": "Fort Mason"
  },
  {
    "lat": 37.8071707,
    "lng": -122.4724585,
    "year": 2022,
    "locality": "Presidio--Battery East"
  },
  {
    "lat": 37.7429271,
    "lng": -122.413289,
    "year": 2022,
    "locality": "Bernal Hill"
  },
  {
    "lat": 37.8051812,
    "lng": -122.4285507,
    "year": 2022,
    "locality": "Fort Mason"
  },
  {
    "lat": 37.8051812,
    "lng": -122.4285507,
    "year": 2022,
    "locality": "Fort Mason"
  },
  {
    "lat": 37.8051812,
    "lng": -122.4285507,
    "year": 2022,
    "locality": "Fort Mason"
  },
  {
    "lat": 37.8051812,
    "lng": -122.4285507,
    "year": 2022,
    "locality": "Fort Mason"
  },
  {
    "lat": 37.8051812,
    "lng": -122.4285507,
    "year": 2022,
    "locality": "Fort Mason"
  },
  {
    "lat": 37.8051812,
    "lng": -122.4285507,
    "year": 2022,
    "locality": "Fort Mason"
  },
  {
    "lat": 37.8051812,
    "lng": -122.4285507,
    "year": 2022,
    "locality": "Fort Mason"
  },
  {
    "lat": 37.7914728,
    "lng": -122.4273491,
    "year": 2022,
    "locality": "Lafayette Park (SF Co.)"
  },
  {
    "lat": 37.7952032,
    "lng": -122.462883,
    "year": 2022,
    "locality": "Presidio--general (use for long traveling checklists encompassing multiple hotspots)"
  },
  {
    "lat": 37.8051812,
    "lng": -122.4285507,
    "year": 2022,
    "locality": "Fort Mason"
  },
  {
    "lat": 37.8000016,
    "lng": -122.4722815,
    "year": 2022,
    "locality": "Presidio--Dragonfly Creek "
  },
  {
    "lat": 37.8051812,
    "lng": -122.4285507,
    "year": 2022,
    "locality": "Fort Mason"
  },
  {
    "lat": 37.7926519,
    "lng": -122.4564643,
    "year": 2022,
    "locality": "Presidio--El Polin Springs & Inspiration Point"
  },
  {
    "lat": 37.8051812,
    "lng": -122.4285507,
    "year": 2022,
    "locality": "Fort Mason"
  },
  {
    "lat": 37.776244,
    "lng": -122.4355888,
    "year": 2022,
    "locality": "Alamo Square"
  },
  {
    "lat": 37.8051812,
    "lng": -122.4285507,
    "year": 2021,
    "locality": "Fort Mason"
  },
  {
    "lat": 37.8051812,
    "lng": -122.4285507,
    "year": 2021,
    "locality": "Fort Mason"
  },
  {
    "lat": 37.7352361,
    "lng": -122.418275,
    "year": 2021,
    "locality": "Battery Rao"
  },
  {
    "lat": 37.7586625,
    "lng": -122.4559844,
    "year": 2021,
    "locality": "Mt. Sutro OSP"
  },
  {
    "lat": 37.7352361,
    "lng": -122.418275,
    "year": 2021,
    "locality": "Battery Rao"
  },
  {
    "lat": 37.8051812,
    "lng": -122.4285507,
    "year": 2021,
    "locality": "Fort Mason"
  },
  {
    "lat": 37.79593,
    "lng": -122.396468,
    "year": 2021,
    "locality": "RUSS BRIGHT PARK (formerly Ferry / Sue Bierman Park)"
  },
  {
    "lat": 37.8051812,
    "lng": -122.4285507,
    "year": 2021,
    "locality": "Fort Mason"
  },
  {
    "lat": 37.8051812,
    "lng": -122.4285507,
    "year": 2021,
    "locality": "Fort Mason"
  },
  {
    "lat": 37.770172,
    "lng": -122.4748564,
    "year": 2021,
    "locality": "Golden Gate Park--Log Cabin Trail"
  },
  {
    "lat": 37.7926519,
    "lng": -122.4564643,
    "year": 2021,
    "locality": "Presidio--El Polin Springs & Inspiration Point"
  },
  {
    "lat": 37.7960445,
    "lng": -122.4492059,
    "year": 2021,
    "locality": "Presidio--Simonds Loop"
  },
  {
    "lat": 37.8000016,
    "lng": -122.4722815,
    "year": 2021,
    "locality": "Presidio--Dragonfly Creek "
  },
  {
    "lat": 37.8051812,
    "lng": -122.4285507,
    "year": 2021,
    "locality": "Fort Mason"
  },
  {
    "lat": 37.8051812,
    "lng": -122.4285507,
    "year": 2021,
    "locality": "Fort Mason"
  },
  {
    "lat": 37.7960445,
    "lng": -122.4492059,
    "year": 2021,
    "locality": "Presidio--Simonds Loop"
  },
  {
    "lat": 37.7708844,
    "lng": -122.4638057,
    "year": 2021,
    "locality": "Golden Gate Park--Rhododendron Dell"
  },
  {
    "lat": 37.7499957,
    "lng": -122.469455,
    "year": 2021,
    "locality": "Golden Gate Heights Park"
  },
  {
    "lat": 37.8051812,
    "lng": -122.4285507,
    "year": 2021,
    "locality": "Fort Mason"
  },
  {
    "lat": 37.7708708,
    "lng": -122.4624061,
    "year": 2021,
    "locality": "Golden Gate Park--Lily Pond"
  },
  {
    "lat": 37.7708708,
    "lng": -122.4624061,
    "year": 2021,
    "locality": "Golden Gate Park--Lily Pond"
  },
  {
    "lat": 37.7352361,
    "lng": -122.418275,
    "year": 2021,
    "locality": "Battery Rao"
  },
  {
    "lat": 37.807695,
    "lng": -122.421702,
    "year": 2021,
    "locality": "San Francisco Maritime National Historical Park, San Francisco US-CA 37.80769, -122.42170"
  },
  {
    "lat": 37.79593,
    "lng": -122.396468,
    "year": 2021,
    "locality": "RUSS BRIGHT PARK (formerly Ferry / Sue Bierman Park)"
  },
  {
    "lat": 37.7914728,
    "lng": -122.4273491,
    "year": 2021,
    "locality": "Lafayette Park (SF Co.)"
  },
  {
    "lat": 37.8051812,
    "lng": -122.4285507,
    "year": 2021,
    "locality": "Fort Mason"
  },
  {
    "lat": 37.802253,
    "lng": -122.418481,
    "year": 2021,
    "locality": "1016 Lombard St, San Francisco US-CA 37.80225, -122.41848"
  },
  {
    "lat": 37.8051812,
    "lng": -122.4285507,
    "year": 2021,
    "locality": "Fort Mason"
  },
  {
    "lat": 37.8051812,
    "lng": -122.4285507,
    "year": 2021,
    "locality": "Fort Mason"
  },
  {
    "lat": 37.8051812,
    "lng": -122.4285507,
    "year": 2021,
    "locality": "Fort Mason"
  },
  {
    "lat": 37.7926519,
    "lng": -122.4564643,
    "year": 2021,
    "locality": "Presidio--El Polin Springs & Inspiration Point"
  },
  {
    "lat": 37.8051812,
    "lng": -122.4285507,
    "year": 2021,
    "locality": "Fort Mason"
  },
  {
    "lat": 37.8053915,
    "lng": -122.4185861,
    "year": 2021,
    "locality": "2624 Leavenworth Street, San Francisco, California, US (37.805, -122.419)"
  },
  {
    "lat": 37.8025001,
    "lng": -122.4199951,
    "year": 2021,
    "locality": "2335 Hyde Street, San Francisco, California, US (37.803, -122.42)"
  },
  {
    "lat": 37.7960445,
    "lng": -122.4492059,
    "year": 2021,
    "locality": "Presidio--Simonds Loop"
  },
  {
    "lat": 37.8051812,
    "lng": -122.4285507,
    "year": 2022,
    "locality": "Fort Mason"
  },
  {
    "lat": 37.7675937,
    "lng": -122.4688053,
    "year": 2022,
    "locality": "Golden Gate Park--Arboretum (San Francisco Botanical Garden)"
  },
  {
    "lat": 37.79593,
    "lng": -122.396468,
    "year": 2021,
    "locality": "RUSS BRIGHT PARK (formerly Ferry / Sue Bierman Park)"
  },
  {
    "lat": 37.8051812,
    "lng": -122.4285507,
    "year": 2021,
    "locality": "Fort Mason"
  },
  {
    "lat": 37.8051812,
    "lng": -122.4285507,
    "year": 2021,
    "locality": "Fort Mason"
  },
  {
    "lat": 37.8028161,
    "lng": -122.4482489,
    "year": 2021,
    "locality": "Palace of Fine Arts"
  },
  {
    "lat": 37.7429271,
    "lng": -122.413289,
    "year": 2021,
    "locality": "Bernal Hill"
  },
  {
    "lat": 37.759806,
    "lng": -122.3992409,
    "year": 2021,
    "locality": "Potrero Hill home"
  },
  {
    "lat": 37.8051812,
    "lng": -122.4285507,
    "year": 2021,
    "locality": "Fort Mason"
  },
  {
    "lat": 37.7708708,
    "lng": -122.4624061,
    "year": 2021,
    "locality": "Golden Gate Park--Lily Pond"
  },
  {
    "lat": 37.7960445,
    "lng": -122.4492059,
    "year": 2021,
    "locality": "Presidio--Simonds Loop"
  },
  {
    "lat": 37.8051812,
    "lng": -122.4285507,
    "year": 2021,
    "locality": "Fort Mason"
  },
  {
    "lat": 37.8051812,
    "lng": -122.4285507,
    "year": 2021,
    "locality": "Fort Mason"
  },
  {
    "lat": 37.7590676,
    "lng": -122.4044707,
    "year": 2021,
    "locality": "McKinley Square"
  },
  {
    "lat": 37.764744,
    "lng": -122.4390221,
    "year": 2021,
    "locality": "Corona Heights Park"
  },
  {
    "lat": 37.764744,
    "lng": -122.4390221,
    "year": 2021,
    "locality": "Corona Heights Park"
  },
  {
    "lat": 37.7732555,
    "lng": -122.4551675,
    "year": 2022,
    "locality": "Golden Gate Park--McLaren Lodge/Horseshoe Pits/Northeast Entrance"
  },
  {
    "lat": 37.8051812,
    "lng": -122.4285507,
    "year": 2022,
    "locality": "Fort Mason"
  },
  {
    "lat": 37.7914728,
    "lng": -122.4273491,
    "year": 2022,
    "locality": "Lafayette Park (SF Co.)"
  },
  {
    "lat": 37.7914728,
    "lng": -122.4273491,
    "year": 2022,
    "locality": "Lafayette Park (SF Co.)"
  },
  {
    "lat": 37.8051812,
    "lng": -122.4285507,
    "year": 2022,
    "locality": "Fort Mason"
  },
  {
    "lat": 37.7914728,
    "lng": -122.4273491,
    "year": 2022,
    "locality": "Lafayette Park (SF Co.)"
  },
  {
    "lat": 37.7675937,
    "lng": -122.4688053,
    "year": 2022,
    "locality": "Golden Gate Park--Arboretum (San Francisco Botanical Garden)"
  },
  {
    "lat": 37.7532689,
    "lng": -122.4683666,
    "year": 2022,
    "locality": "501 Ortega Street, San Francisco, California, US (37,753, -122,468)"
  },
  {
    "lat": 37.7960445,
    "lng": -122.4492059,
    "year": 2022,
    "locality": "Presidio--Simonds Loop"
  },
  {
    "lat": 37.8051812,
    "lng": -122.4285507,
    "year": 2022,
    "locality": "Fort Mason"
  },
  {
    "lat": 37.7926519,
    "lng": -122.4564643,
    "year": 2021,
    "locality": "Presidio--El Polin Springs & Inspiration Point"
  },
  {
    "lat": 37.7708708,
    "lng": -122.4624061,
    "year": 2021,
    "locality": "Golden Gate Park--Lily Pond"
  },
  {
    "lat": 37.7914728,
    "lng": -122.4273491,
    "year": 2022,
    "locality": "Lafayette Park (SF Co.)"
  },
  {
    "lat": 37.7371541,
    "lng": -122.4201177,
    "year": 2022,
    "locality": "Holly Park"
  },
  {
    "lat": 37.8051812,
    "lng": -122.4285507,
    "year": 2022,
    "locality": "Fort Mason"
  },
  {
    "lat": 37.7926519,
    "lng": -122.4564643,
    "year": 2022,
    "locality": "Presidio--El Polin Springs & Inspiration Point"
  },
  {
    "lat": 37.7914728,
    "lng": -122.4273491,
    "year": 2022,
    "locality": "Lafayette Park (SF Co.)"
  },
  {
    "lat": 37.7914728,
    "lng": -122.4273491,
    "year": 2021,
    "locality": "Lafayette Park (SF Co.)"
  },
  {
    "lat": 37.8051812,
    "lng": -122.4285507,
    "year": 2021,
    "locality": "Fort Mason"
  },
  {
    "lat": 37.7207629,
    "lng": -122.418251,
    "year": 2021,
    "locality": "McLaren Park - for long traveling lists- use more specific hotspot where appropriate"
  },
  {
    "lat": 37.7395667,
    "lng": -122.4412966,
    "year": 2021,
    "locality": "Glen Canyon Park"
  },
  {
    "lat": 37.8051812,
    "lng": -122.4285507,
    "year": 2021,
    "locality": "Fort Mason"
  },
  {
    "lat": 37.771013,
    "lng": -122.422608,
    "year": 2021,
    "locality": "US-101 N, San Francisco US-CA 37.77101, -122.42261"
  },
  {
    "lat": 37.7926519,
    "lng": -122.4564643,
    "year": 2021,
    "locality": "Presidio--El Polin Springs & Inspiration Point"
  },
  {
    "lat": 37.7914728,
    "lng": -122.4273491,
    "year": 2021,
    "locality": "Lafayette Park (SF Co.)"
  },
  {
    "lat": 37.7722073,
    "lng": -122.4488926,
    "year": 2021,
    "locality": "Golden Gate Park--Panhandle west of Masonic Ave."
  },
  {
    "lat": 37.807614,
    "lng": -122.4213409,
    "year": 2021,
    "locality": "San Francisco Maritime NHP"
  },
  {
    "lat": 37.7952032,
    "lng": -122.462883,
    "year": 2021,
    "locality": "Presidio--general (use for long traveling checklists encompassing multiple hotspots)"
  },
  {
    "lat": 37.744215,
    "lng": -122.447771,
    "year": 2021,
    "locality": "SOTA/Academy @ McAteer High School Campus"
  },
  {
    "lat": 37.7913372,
    "lng": -122.4379492,
    "year": 2021,
    "locality": "Alta Plaza Park"
  },
  {
    "lat": 37.7817,
    "lng": -122.4255848,
    "year": 2021,
    "locality": "Jefferson Square Park"
  },
  {
    "lat": 37.7914728,
    "lng": -122.4273491,
    "year": 2021,
    "locality": "Lafayette Park (SF Co.)"
  },
  {
    "lat": 37.79593,
    "lng": -122.396468,
    "year": 2021,
    "locality": "RUSS BRIGHT PARK (formerly Ferry / Sue Bierman Park)"
  },
  {
    "lat": 37.7734998,
    "lng": -122.4606466,
    "year": 2021,
    "locality": "Golden Gate Park--Coon Hollow - east oak woodlands"
  },
  {
    "lat": 37.7696461,
    "lng": -122.4841261,
    "year": 2021,
    "locality": "Golden Gate Park - long traveling lists - use more specific hotspots where appropriate"
  },
  {
    "lat": 37.7914728,
    "lng": -122.4273491,
    "year": 2021,
    "locality": "Lafayette Park (SF Co.)"
  },
  {
    "lat": 37.8051812,
    "lng": -122.4285507,
    "year": 2021,
    "locality": "Fort Mason"
  },
  {
    "lat": 37.8051812,
    "lng": -122.4285507,
    "year": 2021,
    "locality": "Fort Mason"
  },
  {
    "lat": 37.7960445,
    "lng": -122.4492059,
    "year": 2021,
    "locality": "Presidio--Simonds Loop"
  },
  {
    "lat": 37.7960445,
    "lng": -122.4492059,
    "year": 2021,
    "locality": "Presidio--Simonds Loop"
  },
  {
    "lat": 37.7960445,
    "lng": -122.4492059,
    "year": 2021,
    "locality": "Presidio--Simonds Loop"
  },
  {
    "lat": 37.7960445,
    "lng": -122.4492059,
    "year": 2021,
    "locality": "Presidio--Simonds Loop"
  },
  {
    "lat": 37.7675937,
    "lng": -122.4688053,
    "year": 2021,
    "locality": "Golden Gate Park--Arboretum (San Francisco Botanical Garden)"
  },
  {
    "lat": 37.8051812,
    "lng": -122.4285507,
    "year": 2021,
    "locality": "Fort Mason"
  },
  {
    "lat": 37.8051812,
    "lng": -122.4285507,
    "year": 2021,
    "locality": "Fort Mason"
  },
  {
    "lat": 37.7960445,
    "lng": -122.4492059,
    "year": 2021,
    "locality": "Presidio--Simonds Loop"
  },
  {
    "lat": 37.7976957,
    "lng": -122.4525833,
    "year": 2021,
    "locality": "Presidio--Sumner St."
  },
  {
    "lat": 37.766199,
    "lng": -122.474272,
    "year": 2021,
    "locality": "San Francisco Botanical Garden, San Francisco US-CA 37.76620, -122.47427 Children's Garden"
  },
  {
    "lat": 37.7960445,
    "lng": -122.4492059,
    "year": 2021,
    "locality": "Presidio--Simonds Loop"
  },
  {
    "lat": 37.7960445,
    "lng": -122.4492059,
    "year": 2021,
    "locality": "Presidio--Simonds Loop"
  },
  {
    "lat": 37.7960445,
    "lng": -122.4492059,
    "year": 2021,
    "locality": "Presidio--Simonds Loop"
  },
  {
    "lat": 37.8051812,
    "lng": -122.4285507,
    "year": 2021,
    "locality": "Fort Mason"
  },
  {
    "lat": 37.8051812,
    "lng": -122.4285507,
    "year": 2021,
    "locality": "Fort Mason"
  },
  {
    "lat": 37.7960445,
    "lng": -122.4492059,
    "year": 2021,
    "locality": "Presidio--Simonds Loop"
  },
  {
    "lat": 37.7960445,
    "lng": -122.4492059,
    "year": 2021,
    "locality": "Presidio--Simonds Loop"
  },
  {
    "lat": 37.7960445,
    "lng": -122.4492059,
    "year": 2021,
    "locality": "Presidio--Simonds Loop"
  },
  {
    "lat": 37.7960445,
    "lng": -122.4492059,
    "year": 2021,
    "locality": "Presidio--Simonds Loop"
  },
  {
    "lat": 37.7960445,
    "lng": -122.4492059,
    "year": 2021,
    "locality": "Presidio--Simonds Loop"
  },
  {
    "lat": 37.7207629,
    "lng": -122.418251,
    "year": 2021,
    "locality": "McLaren Park - for long traveling lists- use more specific hotspot where appropriate"
  },
  {
    "lat": 37.7675937,
    "lng": -122.4688053,
    "year": 2021,
    "locality": "Golden Gate Park--Arboretum (San Francisco Botanical Garden)"
  },
  {
    "lat": 37.8051812,
    "lng": -122.4285507,
    "year": 2021,
    "locality": "Fort Mason"
  },
  {
    "lat": 37.7960445,
    "lng": -122.4492059,
    "year": 2021,
    "locality": "Presidio--Simonds Loop"
  },
  {
    "lat": 37.7960445,
    "lng": -122.4492059,
    "year": 2021,
    "locality": "Presidio--Simonds Loop"
  },
  {
    "lat": 37.770172,
    "lng": -122.4748564,
    "year": 2021,
    "locality": "Golden Gate Park--Log Cabin Trail"
  },
  {
    "lat": 37.7926519,
    "lng": -122.4564643,
    "year": 2021,
    "locality": "Presidio--El Polin Springs & Inspiration Point"
  },
  {
    "lat": 37.7960445,
    "lng": -122.4492059,
    "year": 2021,
    "locality": "Presidio--Simonds Loop"
  },
  {
    "lat": 37.7960445,
    "lng": -122.4492059,
    "year": 2021,
    "locality": "Presidio--Simonds Loop"
  },
  {
    "lat": 37.7926519,
    "lng": -122.4564643,
    "year": 2021,
    "locality": "Presidio--El Polin Springs & Inspiration Point"
  },
  {
    "lat": 37.7960445,
    "lng": -122.4492059,
    "year": 2021,
    "locality": "Presidio--Simonds Loop"
  },
  {
    "lat": 37.7352361,
    "lng": -122.418275,
    "year": 2021,
    "locality": "Battery Rao"
  },
  {
    "lat": 37.8051812,
    "lng": -122.4285507,
    "year": 2022,
    "locality": "Fort Mason"
  },
  {
    "lat": 37.79593,
    "lng": -122.396468,
    "year": 2022,
    "locality": "RUSS BRIGHT PARK (formerly Ferry / Sue Bierman Park)"
  },
  {
    "lat": 37.8032484,
    "lng": -122.4060202,
    "year": 2022,
    "locality": "Telegraph Hill"
  },
  {
    "lat": 37.79593,
    "lng": -122.396468,
    "year": 2022,
    "locality": "RUSS BRIGHT PARK (formerly Ferry / Sue Bierman Park)"
  },
  {
    "lat": 37.7914728,
    "lng": -122.4273491,
    "year": 2022,
    "locality": "Lafayette Park (SF Co.)"
  },
  {
    "lat": 37.79593,
    "lng": -122.396468,
    "year": 2022,
    "locality": "RUSS BRIGHT PARK (formerly Ferry / Sue Bierman Park)"
  },
  {
    "lat": 37.79593,
    "lng": -122.396468,
    "year": 2022,
    "locality": "RUSS BRIGHT PARK (formerly Ferry / Sue Bierman Park)"
  },
  {
    "lat": 37.79593,
    "lng": -122.396468,
    "year": 2022,
    "locality": "RUSS BRIGHT PARK (formerly Ferry / Sue Bierman Park)"
  },
  {
    "lat": 37.79593,
    "lng": -122.396468,
    "year": 2022,
    "locality": "RUSS BRIGHT PARK (formerly Ferry / Sue Bierman Park)"
  },
  {
    "lat": 37.7934583,
    "lng": -122.3917995,
    "year": 2022,
    "locality": "SF Bay Trail"
  },
  {
    "lat": 37.79593,
    "lng": -122.396468,
    "year": 2022,
    "locality": "RUSS BRIGHT PARK (formerly Ferry / Sue Bierman Park)"
  },
  {
    "lat": 37.764744,
    "lng": -122.4390221,
    "year": 2022,
    "locality": "Corona Heights Park"
  },
  {
    "lat": 37.79593,
    "lng": -122.396468,
    "year": 2022,
    "locality": "RUSS BRIGHT PARK (formerly Ferry / Sue Bierman Park)"
  },
  {
    "lat": 37.79593,
    "lng": -122.396468,
    "year": 2022,
    "locality": "RUSS BRIGHT PARK (formerly Ferry / Sue Bierman Park)"
  },
  {
    "lat": 37.79593,
    "lng": -122.396468,
    "year": 2022,
    "locality": "RUSS BRIGHT PARK (formerly Ferry / Sue Bierman Park)"
  },
  {
    "lat": 37.7675937,
    "lng": -122.4688053,
    "year": 2022,
    "locality": "Golden Gate Park--Arboretum (San Francisco Botanical Garden)"
  },
  {
    "lat": 37.79593,
    "lng": -122.396468,
    "year": 2022,
    "locality": "RUSS BRIGHT PARK (formerly Ferry / Sue Bierman Park)"
  },
  {
    "lat": 37.8051812,
    "lng": -122.4285507,
    "year": 2022,
    "locality": "Fort Mason"
  },
  {
    "lat": 37.79593,
    "lng": -122.396468,
    "year": 2022,
    "locality": "RUSS BRIGHT PARK (formerly Ferry / Sue Bierman Park)"
  },
  {
    "lat": 37.730597,
    "lng": -122.448247,
    "year": 2022,
    "locality": "250 Foerster St, San Francisco US-CA (37.7306,-122.4482)"
  },
  {
    "lat": 37.764744,
    "lng": -122.4390221,
    "year": 2022,
    "locality": "Corona Heights Park"
  },
  {
    "lat": 37.8051812,
    "lng": -122.4285507,
    "year": 2022,
    "locality": "Fort Mason"
  },
  {
    "lat": 37.79593,
    "lng": -122.396468,
    "year": 2022,
    "locality": "RUSS BRIGHT PARK (formerly Ferry / Sue Bierman Park)"
  },
  {
    "lat": 37.7675937,
    "lng": -122.4688053,
    "year": 2022,
    "locality": "Golden Gate Park--Arboretum (San Francisco Botanical Garden)"
  },
  {
    "lat": 37.8051812,
    "lng": -122.4285507,
    "year": 2022,
    "locality": "Fort Mason"
  },
  {
    "lat": 37.8028,
    "lng": -122.431845,
    "year": 2022,
    "locality": "Moscone Baseball Fields, San Francisco US-CA 37.80280, -122.43185"
  },
  {
    "lat": 37.7926519,
    "lng": -122.4564643,
    "year": 2022,
    "locality": "Presidio--El Polin Springs & Inspiration Point"
  },
  {
    "lat": 37.764744,
    "lng": -122.4390221,
    "year": 2022,
    "locality": "Corona Heights Park"
  },
  {
    "lat": 37.8032484,
    "lng": -122.4060202,
    "year": 2022,
    "locality": "Telegraph Hill"
  },
  {
    "lat": 37.79516,
    "lng": -122.400208,
    "year": 2022,
    "locality": "444 Battery St, San Francisco CA"
  },
  {
    "lat": 37.764744,
    "lng": -122.4390221,
    "year": 2022,
    "locality": "Corona Heights Park"
  },
  {
    "lat": 37.7696461,
    "lng": -122.4577332,
    "year": 2022,
    "locality": "Golden Gate Park--Hippie Hill & Tennis Complex"
  },
  {
    "lat": 37.79593,
    "lng": -122.396468,
    "year": 2022,
    "locality": "RUSS BRIGHT PARK (formerly Ferry / Sue Bierman Park)"
  },
  {
    "lat": 37.7985657,
    "lng": -122.4463329,
    "year": 2022,
    "locality": "Lombard St"
  },
  {
    "lat": 37.7960445,
    "lng": -122.4492059,
    "year": 2022,
    "locality": "Presidio--Simonds Loop"
  },
  {
    "lat": 37.8051812,
    "lng": -122.4285507,
    "year": 2022,
    "locality": "Fort Mason"
  },
  {
    "lat": 37.7914728,
    "lng": -122.4273491,
    "year": 2022,
    "locality": "Lafayette Park (SF Co.)"
  },
  {
    "lat": 37.7219532,
    "lng": -122.4144256,
    "year": 2022,
    "locality": "McLaren Park--McNab Pond"
  },
  {
    "lat": 37.8051812,
    "lng": -122.4285507,
    "year": 2022,
    "locality": "Fort Mason"
  },
  {
    "lat": 37.8051812,
    "lng": -122.4285507,
    "year": 2022,
    "locality": "Fort Mason"
  },
  {
    "lat": 37.7675937,
    "lng": -122.4688053,
    "year": 2022,
    "locality": "Golden Gate Park--Arboretum (San Francisco Botanical Garden)"
  },
  {
    "lat": 37.79593,
    "lng": -122.396468,
    "year": 2022,
    "locality": "RUSS BRIGHT PARK (formerly Ferry / Sue Bierman Park)"
  },
  {
    "lat": 37.79593,
    "lng": -122.396468,
    "year": 2022,
    "locality": "RUSS BRIGHT PARK (formerly Ferry / Sue Bierman Park)"
  },
  {
    "lat": 37.79516,
    "lng": -122.400208,
    "year": 2022,
    "locality": "444 Battery St, San Francisco CA"
  },
  {
    "lat": 37.8051812,
    "lng": -122.4285507,
    "year": 2022,
    "locality": "Fort Mason"
  },
  {
    "lat": 37.7914728,
    "lng": -122.4273491,
    "year": 2022,
    "locality": "Lafayette Park (SF Co.)"
  },
  {
    "lat": 37.8051812,
    "lng": -122.4285507,
    "year": 2022,
    "locality": "Fort Mason"
  },
  {
    "lat": 37.7732555,
    "lng": -122.4551675,
    "year": 2022,
    "locality": "Golden Gate Park--McLaren Lodge/Horseshoe Pits/Northeast Entrance"
  },
  {
    "lat": 37.764744,
    "lng": -122.4390221,
    "year": 2022,
    "locality": "Corona Heights Park"
  },
  {
    "lat": 37.8051812,
    "lng": -122.4285507,
    "year": 2022,
    "locality": "Fort Mason"
  },
  {
    "lat": 37.8051812,
    "lng": -122.4285507,
    "year": 2022,
    "locality": "Fort Mason"
  },
  {
    "lat": 37.7926519,
    "lng": -122.4564643,
    "year": 2022,
    "locality": "Presidio--El Polin Springs & Inspiration Point"
  },
  {
    "lat": 37.8051812,
    "lng": -122.4285507,
    "year": 2022,
    "locality": "Fort Mason"
  },
  {
    "lat": 37.7660903,
    "lng": -122.457583,
    "year": 2022,
    "locality": "Golden Gate Park CommUNITY Garden"
  },
  {
    "lat": 37.8051812,
    "lng": -122.4285507,
    "year": 2022,
    "locality": "Fort Mason"
  },
  {
    "lat": 37.7678376,
    "lng": -122.4414012,
    "year": 2022,
    "locality": "Buena Vista Park (SF Co.)"
  },
  {
    "lat": 37.776244,
    "lng": -122.4355888,
    "year": 2022,
    "locality": "Alamo Square"
  },
  {
    "lat": 37.8047658,
    "lng": -122.4562311,
    "year": 2022,
    "locality": "Presidio--Crissy Field Lagoon"
  },
  {
    "lat": 37.8051812,
    "lng": -122.4285507,
    "year": 2022,
    "locality": "Fort Mason"
  },
  {
    "lat": 37.7623776,
    "lng": -122.4227652,
    "year": 2022,
    "locality": "Dearborn Community Garden"
  },
  {
    "lat": 37.8051812,
    "lng": -122.4285507,
    "year": 2022,
    "locality": "Fort Mason"
  },
  {
    "lat": 37.7506634,
    "lng": -122.4049687,
    "year": 2022,
    "locality": "Potrero del Sol Park"
  },
  {
    "lat": 37.783204,
    "lng": -122.4119959,
    "year": 2022,
    "locality": "Urban San Francisco"
  },
  {
    "lat": 37.8051812,
    "lng": -122.4285507,
    "year": 2022,
    "locality": "Fort Mason"
  },
  {
    "lat": 37.7926519,
    "lng": -122.4564643,
    "year": 2022,
    "locality": "Presidio--El Polin Springs & Inspiration Point"
  },
  {
    "lat": 37.7306151,
    "lng": -122.3959351,
    "year": 2022,
    "locality": "Florence Fang Community Farm"
  },
  {
    "lat": 37.777382,
    "lng": -122.463811,
    "year": 2022,
    "locality": "438 Balboa St, San Francisco US-CA 37.77738, -122.46381"
  },
  {
    "lat": 37.7735218,
    "lng": -122.3948193,
    "year": 2022,
    "locality": "Mission Creek (SF Co.)"
  },
  {
    "lat": 37.8051812,
    "lng": -122.4285507,
    "year": 2022,
    "locality": "Fort Mason"
  },
  {
    "lat": 37.7817,
    "lng": -122.4255848,
    "year": 2022,
    "locality": "Jefferson Square Park"
  },
  {
    "lat": 37.7675937,
    "lng": -122.4688053,
    "year": 2022,
    "locality": "Golden Gate Park--Arboretum (San Francisco Botanical Garden)"
  },
  {
    "lat": 37.8051812,
    "lng": -122.4285507,
    "year": 2022,
    "locality": "Fort Mason"
  },
  {
    "lat": 37.8051812,
    "lng": -122.4285507,
    "year": 2022,
    "locality": "Fort Mason"
  },
  {
    "lat": 37.8051812,
    "lng": -122.4285507,
    "year": 2022,
    "locality": "Fort Mason"
  },
  {
    "lat": 37.7960445,
    "lng": -122.4492059,
    "year": 2021,
    "locality": "Presidio--Simonds Loop"
  },
  {
    "lat": 37.7914728,
    "lng": -122.4273491,
    "year": 2022,
    "locality": "Lafayette Park (SF Co.)"
  },
  {
    "lat": 37.776244,
    "lng": -122.4355888,
    "year": 2022,
    "locality": "Alamo Square"
  },
  {
    "lat": 37.7696212,
    "lng": -122.4712195,
    "year": 2022,
    "locality": "Cal. Academy-Stow Lake Area Search"
  },
  {
    "lat": 37.8051812,
    "lng": -122.4285507,
    "year": 2022,
    "locality": "Fort Mason"
  },
  {
    "lat": 37.8051812,
    "lng": -122.4285507,
    "year": 2022,
    "locality": "Fort Mason"
  },
  {
    "lat": 37.8051812,
    "lng": -122.4285507,
    "year": 2022,
    "locality": "Fort Mason"
  },
  {
    "lat": 37.8051812,
    "lng": -122.4285507,
    "year": 2022,
    "locality": "Fort Mason"
  },
  {
    "lat": 37.764744,
    "lng": -122.4390221,
    "year": 2022,
    "locality": "Corona Heights Park"
  },
  {
    "lat": 37.7960445,
    "lng": -122.4492059,
    "year": 2022,
    "locality": "Presidio--Simonds Loop"
  },
  {
    "lat": 37.79593,
    "lng": -122.396468,
    "year": 2022,
    "locality": "RUSS BRIGHT PARK (formerly Ferry / Sue Bierman Park)"
  },
  {
    "lat": 37.8071732,
    "lng": -122.4247313,
    "year": 2022,
    "locality": "San Francisco Aquatic Park"
  },
  {
    "lat": 37.7960445,
    "lng": -122.4492059,
    "year": 2022,
    "locality": "Presidio--Simonds Loop"
  },
  {
    "lat": 37.8051812,
    "lng": -122.4285507,
    "year": 2022,
    "locality": "Fort Mason"
  },
  {
    "lat": 37.7675937,
    "lng": -122.4688053,
    "year": 2022,
    "locality": "Golden Gate Park--Arboretum (San Francisco Botanical Garden)"
  },
  {
    "lat": 37.79593,
    "lng": -122.396468,
    "year": 2022,
    "locality": "RUSS BRIGHT PARK (formerly Ferry / Sue Bierman Park)"
  },
  {
    "lat": 37.8028161,
    "lng": -122.4482489,
    "year": 2022,
    "locality": "Palace of Fine Arts"
  },
  {
    "lat": 37.8051812,
    "lng": -122.4285507,
    "year": 2022,
    "locality": "Fort Mason"
  },
  {
    "lat": 37.8051812,
    "lng": -122.4285507,
    "year": 2022,
    "locality": "Fort Mason"
  },
  {
    "lat": 37.8051812,
    "lng": -122.4285507,
    "year": 2022,
    "locality": "Fort Mason"
  },
  {
    "lat": 37.7827607,
    "lng": -122.3990411,
    "year": 2022,
    "locality": "Alice St. Community Garden"
  },
  {
    "lat": 37.8051812,
    "lng": -122.4285507,
    "year": 2022,
    "locality": "Fort Mason"
  },
  {
    "lat": 37.8051812,
    "lng": -122.4285507,
    "year": 2022,
    "locality": "Fort Mason"
  },
  {
    "lat": 37.8051812,
    "lng": -122.4285507,
    "year": 2022,
    "locality": "Fort Mason"
  },
  {
    "lat": 37.7926519,
    "lng": -122.4564643,
    "year": 2022,
    "locality": "Presidio--El Polin Springs & Inspiration Point"
  },
  {
    "lat": 37.7285165,
    "lng": -122.4034631,
    "year": 2022,
    "locality": "Burrows Pocket Park"
  },
  {
    "lat": 37.8051812,
    "lng": -122.4285507,
    "year": 2022,
    "locality": "Fort Mason"
  },
  {
    "lat": 37.7352361,
    "lng": -122.418275,
    "year": 2022,
    "locality": "Battery Rao"
  },
  {
    "lat": 37.8051812,
    "lng": -122.4285507,
    "year": 2022,
    "locality": "Fort Mason"
  },
  {
    "lat": 37.8051812,
    "lng": -122.4285507,
    "year": 2022,
    "locality": "Fort Mason"
  },
  {
    "lat": 37.7600112,
    "lng": -122.4280143,
    "year": 2022,
    "locality": "Mission Dolores Park"
  },
  {
    "lat": 37.7675937,
    "lng": -122.4688053,
    "year": 2022,
    "locality": "Golden Gate Park--Arboretum (San Francisco Botanical Garden)"
  },
  {
    "lat": 37.79593,
    "lng": -122.396468,
    "year": 2022,
    "locality": "RUSS BRIGHT PARK (formerly Ferry / Sue Bierman Park)"
  },
  {
    "lat": 37.8051812,
    "lng": -122.4285507,
    "year": 2022,
    "locality": "Fort Mason"
  },
  {
    "lat": 37.8051812,
    "lng": -122.4285507,
    "year": 2022,
    "locality": "Fort Mason"
  },
  {
    "lat": 37.8051812,
    "lng": -122.4285507,
    "year": 2022,
    "locality": "Fort Mason"
  },
  {
    "lat": 37.8051812,
    "lng": -122.4285507,
    "year": 2022,
    "locality": "Fort Mason"
  },
  {
    "lat": 37.7926519,
    "lng": -122.4564643,
    "year": 2022,
    "locality": "Presidio--El Polin Springs & Inspiration Point"
  },
  {
    "lat": 37.79593,
    "lng": -122.396468,
    "year": 2022,
    "locality": "RUSS BRIGHT PARK (formerly Ferry / Sue Bierman Park)"
  },
  {
    "lat": 37.79593,
    "lng": -122.396468,
    "year": 2022,
    "locality": "RUSS BRIGHT PARK (formerly Ferry / Sue Bierman Park)"
  },
  {
    "lat": 37.8051812,
    "lng": -122.4285507,
    "year": 2022,
    "locality": "Fort Mason"
  },
  {
    "lat": 37.7879902,
    "lng": -122.4075034,
    "year": 2022,
    "locality": "Union Square"
  },
  {
    "lat": 37.79593,
    "lng": -122.396468,
    "year": 2022,
    "locality": "RUSS BRIGHT PARK (formerly Ferry / Sue Bierman Park)"
  },
  {
    "lat": 37.8051812,
    "lng": -122.4285507,
    "year": 2022,
    "locality": "Fort Mason"
  },
  {
    "lat": 37.7874472,
    "lng": -122.4695413,
    "year": 2022,
    "locality": "Presidio--Mountain Lake Park"
  },
  {
    "lat": 37.8051812,
    "lng": -122.4285507,
    "year": 2022,
    "locality": "Fort Mason"
  },
  {
    "lat": 37.7675937,
    "lng": -122.4688053,
    "year": 2022,
    "locality": "Golden Gate Park--Arboretum (San Francisco Botanical Garden)"
  },
  {
    "lat": 37.8051812,
    "lng": -122.4285507,
    "year": 2022,
    "locality": "Fort Mason"
  },
  {
    "lat": 37.8051812,
    "lng": -122.4285507,
    "year": 2022,
    "locality": "Fort Mason"
  },
  {
    "lat": 37.7960445,
    "lng": -122.4492059,
    "year": 2022,
    "locality": "Presidio--Simonds Loop"
  },
  {
    "lat": 37.7675937,
    "lng": -122.4688053,
    "year": 2022,
    "locality": "Golden Gate Park--Arboretum (San Francisco Botanical Garden)"
  },
  {
    "lat": 37.798981,
    "lng": -122.4524,
    "year": 2022,
    "locality": "The Presidio, San Francisco US-CA 37.79898, -122.45240"
  },
  {
    "lat": 37.764744,
    "lng": -122.4390221,
    "year": 2022,
    "locality": "Corona Heights Park"
  },
  {
    "lat": 37.7383704,
    "lng": -122.4533987,
    "year": 2022,
    "locality": "Mt. Davidson"
  },
  {
    "lat": 37.7914728,
    "lng": -122.4273491,
    "year": 2022,
    "locality": "Lafayette Park (SF Co.)"
  },
  {
    "lat": 37.8051812,
    "lng": -122.4285507,
    "year": 2022,
    "locality": "Fort Mason"
  },
  {
    "lat": 37.7914728,
    "lng": -122.4273491,
    "year": 2022,
    "locality": "Lafayette Park (SF Co.)"
  },
  {
    "lat": 37.7383704,
    "lng": -122.4533987,
    "year": 2022,
    "locality": "Mt. Davidson"
  },
  {
    "lat": 37.7675937,
    "lng": -122.4688053,
    "year": 2022,
    "locality": "Golden Gate Park--Arboretum (San Francisco Botanical Garden)"
  },
  {
    "lat": 37.7926519,
    "lng": -122.4564643,
    "year": 2022,
    "locality": "Presidio--El Polin Springs & Inspiration Point"
  },
  {
    "lat": 37.8051812,
    "lng": -122.4285507,
    "year": 2022,
    "locality": "Fort Mason"
  },
  {
    "lat": 37.7352361,
    "lng": -122.418275,
    "year": 2022,
    "locality": "Battery Rao"
  },
  {
    "lat": 37.8051812,
    "lng": -122.4285507,
    "year": 2022,
    "locality": "Fort Mason"
  },
  {
    "lat": 37.8051812,
    "lng": -122.4285507,
    "year": 2022,
    "locality": "Fort Mason"
  },
  {
    "lat": 37.776244,
    "lng": -122.4355888,
    "year": 2022,
    "locality": "Alamo Square"
  },
  {
    "lat": 37.8051812,
    "lng": -122.4285507,
    "year": 2022,
    "locality": "Fort Mason"
  },
  {
    "lat": 37.7926519,
    "lng": -122.4564643,
    "year": 2022,
    "locality": "Presidio--El Polin Springs & Inspiration Point"
  },
  {
    "lat": 37.770172,
    "lng": -122.4748564,
    "year": 2025,
    "locality": "Golden Gate Park--Log Cabin Trail"
  },
  {
    "lat": 37.8010359,
    "lng": -122.4101454,
    "year": 2025,
    "locality": "Washington Square Park"
  },
  {
    "lat": 37.749504,
    "lng": -122.424521,
    "year": 2025,
    "locality": "1246 Dolores St, San Francisco US-CA 37.74950, -122.42452"
  },
  {
    "lat": 37.7952032,
    "lng": -122.462883,
    "year": 2025,
    "locality": "Presidio--general (use for long traveling checklists encompassing multiple hotspots)"
  },
  {
    "lat": 37.802833,
    "lng": -122.4014175,
    "year": 2025,
    "locality": "Levi's Plaza"
  },
  {
    "lat": 37.8032484,
    "lng": -122.4060202,
    "year": 2025,
    "locality": "Telegraph Hill"
  },
  {
    "lat": 37.799356,
    "lng": -122.454029,
    "year": 2025,
    "locality": "UBIF official use only YMCA reach"
  },
  {
    "lat": 37.8051812,
    "lng": -122.4285507,
    "year": 2025,
    "locality": "Fort Mason"
  },
  {
    "lat": 37.7675937,
    "lng": -122.4688053,
    "year": 2025,
    "locality": "Golden Gate Park--Arboretum (San Francisco Botanical Garden)"
  },
  {
    "lat": 37.764744,
    "lng": -122.4390221,
    "year": 2025,
    "locality": "Corona Heights Park"
  },
  {
    "lat": 37.7926519,
    "lng": -122.4564643,
    "year": 2025,
    "locality": "Presidio--El Polin Springs & Inspiration Point"
  },
  {
    "lat": 37.8051812,
    "lng": -122.4285507,
    "year": 2025,
    "locality": "Fort Mason"
  },
  {
    "lat": 37.8041273,
    "lng": -122.4642633,
    "year": 2025,
    "locality": "Presidio--Crissy Field"
  },
  {
    "lat": 37.8047658,
    "lng": -122.4562311,
    "year": 2025,
    "locality": "Presidio--Crissy Field Lagoon"
  },
  {
    "lat": 37.7952236,
    "lng": -122.3942045,
    "year": 2025,
    "locality": "San Francisco Ferry Building"
  },
  {
    "lat": 37.7429271,
    "lng": -122.413289,
    "year": 2025,
    "locality": "Bernal Hill"
  },
  {
    "lat": 37.8051812,
    "lng": -122.4285507,
    "year": 2025,
    "locality": "Fort Mason"
  },
  {
    "lat": 37.789782,
    "lng": -122.440776,
    "year": 2025,
    "locality": "Church of Christ, San Francisco US-CA 37.78978, -122.44078"
  },
  {
    "lat": 37.80018,
    "lng": -122.456535,
    "year": 2025,
    "locality": "Presidio"
  },
  {
    "lat": 37.7600112,
    "lng": -122.4280143,
    "year": 2025,
    "locality": "Mission Dolores Park"
  },
  {
    "lat": 37.8051812,
    "lng": -122.4285507,
    "year": 2025,
    "locality": "Fort Mason"
  },
  {
    "lat": 37.8051812,
    "lng": -122.4285507,
    "year": 2025,
    "locality": "Fort Mason"
  },
  {
    "lat": 37.7678376,
    "lng": -122.4414012,
    "year": 2025,
    "locality": "Buena Vista Park (SF Co.)"
  },
  {
    "lat": 37.7643896,
    "lng": -122.3995849,
    "year": 2025,
    "locality": "Jackson Playground Park"
  },
  {
    "lat": 37.8010359,
    "lng": -122.4101454,
    "year": 2025,
    "locality": "Washington Square Park"
  },
  {
    "lat": 37.7429271,
    "lng": -122.413289,
    "year": 2025,
    "locality": "Bernal Hill"
  },
  {
    "lat": 37.7926519,
    "lng": -122.4564643,
    "year": 2025,
    "locality": "Presidio--El Polin Springs & Inspiration Point"
  },
  {
    "lat": 37.8051812,
    "lng": -122.4285507,
    "year": 2025,
    "locality": "Fort Mason"
  },
  {
    "lat": 37.8047658,
    "lng": -122.4562311,
    "year": 2025,
    "locality": "Presidio--Crissy Field Lagoon"
  },
  {
    "lat": 37.7926519,
    "lng": -122.4564643,
    "year": 2025,
    "locality": "Presidio--El Polin Springs & Inspiration Point"
  },
  {
    "lat": 37.7678376,
    "lng": -122.4414012,
    "year": 2025,
    "locality": "Buena Vista Park (SF Co.)"
  },
  {
    "lat": 37.7982807,
    "lng": -122.413466,
    "year": 2025,
    "locality": "Ina Coolbrith Park"
  },
  {
    "lat": 37.8037613,
    "lng": -122.4774715,
    "year": 2025,
    "locality": "Presidio--Battery Godfrey"
  },
  {
    "lat": 37.8032484,
    "lng": -122.4060202,
    "year": 2025,
    "locality": "Telegraph Hill"
  },
  {
    "lat": 37.7926519,
    "lng": -122.4564643,
    "year": 2025,
    "locality": "Presidio--El Polin Springs & Inspiration Point"
  },
  {
    "lat": 37.8051812,
    "lng": -122.4285507,
    "year": 2025,
    "locality": "Fort Mason"
  },
  {
    "lat": 37.8051812,
    "lng": -122.4285507,
    "year": 2025,
    "locality": "Fort Mason"
  },
  {
    "lat": 37.7678376,
    "lng": -122.4414012,
    "year": 2025,
    "locality": "Buena Vista Park (SF Co.)"
  },
  {
    "lat": 37.8051812,
    "lng": -122.4285507,
    "year": 2025,
    "locality": "Fort Mason"
  },
  {
    "lat": 37.7932363,
    "lng": -122.4595141,
    "year": 2025,
    "locality": "Presidio--Ecology Trail"
  },
  {
    "lat": 37.78496,
    "lng": -122.421238,
    "year": 2025,
    "locality": "1000\u20131048 Van Ness Ave, San Francisco US-CA 37.78496, -122.42124"
  },
  {
    "lat": 37.7926519,
    "lng": -122.4564643,
    "year": 2025,
    "locality": "Presidio--El Polin Springs & Inspiration Point"
  },
  {
    "lat": 37.7926519,
    "lng": -122.4564643,
    "year": 2025,
    "locality": "Presidio--El Polin Springs & Inspiration Point"
  },
  {
    "lat": 37.7675937,
    "lng": -122.4688053,
    "year": 2025,
    "locality": "Golden Gate Park--Arboretum (San Francisco Botanical Garden)"
  },
  {
    "lat": 37.7926519,
    "lng": -122.4564643,
    "year": 2025,
    "locality": "Presidio--El Polin Springs & Inspiration Point"
  },
  {
    "lat": 37.7874472,
    "lng": -122.4695413,
    "year": 2025,
    "locality": "Presidio--Mountain Lake Park"
  },
  {
    "lat": 37.7635354,
    "lng": -122.4042124,
    "year": 2025,
    "locality": "Nature Trip"
  },
  {
    "lat": 37.7903622,
    "lng": -122.4581351,
    "year": 2025,
    "locality": "stakeout Least Flycatcher, Presidio (2020)"
  },
  {
    "lat": 37.8051812,
    "lng": -122.4285507,
    "year": 2025,
    "locality": "Fort Mason"
  },
  {
    "lat": 37.7845,
    "lng": -122.463498,
    "year": 2025,
    "locality": "217 5th Ave, San Francisco US-CA 37.78450, -122.46350"
  },
  {
    "lat": 37.7926519,
    "lng": -122.4564643,
    "year": 2025,
    "locality": "Presidio--El Polin Springs & Inspiration Point"
  },
  {
    "lat": 37.8051812,
    "lng": -122.4285507,
    "year": 2025,
    "locality": "Fort Mason"
  },
  {
    "lat": 37.8051812,
    "lng": -122.4285507,
    "year": 2025,
    "locality": "Fort Mason"
  },
  {
    "lat": 37.8051812,
    "lng": -122.4285507,
    "year": 2025,
    "locality": "Fort Mason"
  },
  {
    "lat": 37.7207629,
    "lng": -122.418251,
    "year": 2025,
    "locality": "McLaren Park - for long traveling lists- use more specific hotspot where appropriate"
  },
  {
    "lat": 37.7999966,
    "lng": -122.4564075,
    "year": 2025,
    "locality": "Presidio--Main Post"
  },
  {
    "lat": 37.787108,
    "lng": -122.413256,
    "year": 2025,
    "locality": "644 Jones St, San Francisco US-CA 37.78711, -122.41326"
  },
  {
    "lat": 37.7999966,
    "lng": -122.4564075,
    "year": 2025,
    "locality": "Presidio--Main Post"
  },
  {
    "lat": 37.7675937,
    "lng": -122.4688053,
    "year": 2025,
    "locality": "Golden Gate Park--Arboretum (San Francisco Botanical Garden)"
  },
  {
    "lat": 37.7960445,
    "lng": -122.4492059,
    "year": 2025,
    "locality": "Presidio--Simonds Loop"
  },
  {
    "lat": 37.7675937,
    "lng": -122.4688053,
    "year": 2025,
    "locality": "Golden Gate Park--Arboretum (San Francisco Botanical Garden)"
  },
  {
    "lat": 37.7686349,
    "lng": -122.4749326,
    "year": 2025,
    "locality": "Golden Gate Park--Blue Heron Lake & Strawberry Hill"
  },
  {
    "lat": 37.7686349,
    "lng": -122.4749326,
    "year": 2025,
    "locality": "Golden Gate Park--Blue Heron Lake & Strawberry Hill"
  },
  {
    "lat": 37.7926519,
    "lng": -122.4564643,
    "year": 2025,
    "locality": "Presidio--El Polin Springs & Inspiration Point"
  },
  {
    "lat": 37.7926519,
    "lng": -122.4564643,
    "year": 2025,
    "locality": "Presidio--El Polin Springs & Inspiration Point"
  },
  {
    "lat": 37.7970641,
    "lng": -122.4556357,
    "year": 2025,
    "locality": "Presidio--Tennessee Hollow"
  },
  {
    "lat": 37.7982807,
    "lng": -122.413466,
    "year": 2025,
    "locality": "Ina Coolbrith Park"
  },
  {
    "lat": 37.7429271,
    "lng": -122.413289,
    "year": 2025,
    "locality": "Bernal Hill"
  },
  {
    "lat": 37.8051812,
    "lng": -122.4285507,
    "year": 2025,
    "locality": "Fort Mason"
  },
  {
    "lat": 37.7926519,
    "lng": -122.4564643,
    "year": 2025,
    "locality": "Presidio--El Polin Springs & Inspiration Point"
  },
  {
    "lat": 37.759627,
    "lng": -122.398863,
    "year": 2025,
    "locality": "Potrero Hill home"
  },
  {
    "lat": 37.8055369,
    "lng": -122.4652389,
    "year": 2025,
    "locality": "Presidio--Crissy Field Wildlife Protection Area and Coast Guard Pier"
  },
  {
    "lat": 37.7675937,
    "lng": -122.4688053,
    "year": 2025,
    "locality": "Golden Gate Park--Arboretum (San Francisco Botanical Garden)"
  },
  {
    "lat": 37.7678376,
    "lng": -122.4414012,
    "year": 2025,
    "locality": "Buena Vista Park (SF Co.)"
  },
  {
    "lat": 37.7926519,
    "lng": -122.4564643,
    "year": 2025,
    "locality": "Presidio--El Polin Springs & Inspiration Point"
  },
  {
    "lat": 37.8051812,
    "lng": -122.4285507,
    "year": 2025,
    "locality": "Fort Mason"
  },
  {
    "lat": 37.8035834,
    "lng": -122.4534368,
    "year": 2025,
    "locality": "Presidio - Quartermaster Reach"
  },
  {
    "lat": 37.7926519,
    "lng": -122.4564643,
    "year": 2025,
    "locality": "Presidio--El Polin Springs & Inspiration Point"
  },
  {
    "lat": 37.7678376,
    "lng": -122.4414012,
    "year": 2025,
    "locality": "Buena Vista Park (SF Co.)"
  },
  {
    "lat": 37.7914728,
    "lng": -122.4273491,
    "year": 2025,
    "locality": "Lafayette Park (SF Co.)"
  },
  {
    "lat": 37.784719,
    "lng": -122.468268,
    "year": 2025,
    "locality": "4726 California St, San Francisco US-CA 37.78472, -122.46827"
  },
  {
    "lat": 37.7960445,
    "lng": -122.4492059,
    "year": 2025,
    "locality": "Presidio--Simonds Loop"
  },
  {
    "lat": 37.7926519,
    "lng": -122.4564643,
    "year": 2025,
    "locality": "Presidio--El Polin Springs & Inspiration Point"
  },
  {
    "lat": 37.8051812,
    "lng": -122.4285507,
    "year": 2025,
    "locality": "Fort Mason"
  },
  {
    "lat": 37.8047658,
    "lng": -122.4562311,
    "year": 2025,
    "locality": "Presidio--Crissy Field Lagoon"
  },
  {
    "lat": 37.8051812,
    "lng": -122.4285507,
    "year": 2025,
    "locality": "Fort Mason"
  },
  {
    "lat": 37.8047658,
    "lng": -122.4562311,
    "year": 2025,
    "locality": "Presidio--Crissy Field Lagoon"
  },
  {
    "lat": 37.7675937,
    "lng": -122.4688053,
    "year": 2025,
    "locality": "Golden Gate Park--Arboretum (San Francisco Botanical Garden)"
  },
  {
    "lat": 37.7675937,
    "lng": -122.4688053,
    "year": 2025,
    "locality": "Golden Gate Park--Arboretum (San Francisco Botanical Garden)"
  },
  {
    "lat": 37.8047658,
    "lng": -122.4562311,
    "year": 2025,
    "locality": "Presidio--Crissy Field Lagoon"
  },
  {
    "lat": 37.7970641,
    "lng": -122.4556357,
    "year": 2025,
    "locality": "Presidio--Tennessee Hollow"
  },
  {
    "lat": 37.7675937,
    "lng": -122.4688053,
    "year": 2025,
    "locality": "Golden Gate Park--Arboretum (San Francisco Botanical Garden)"
  },
  {
    "lat": 37.7815398,
    "lng": -122.3940731,
    "year": 2025,
    "locality": "South Park"
  },
  {
    "lat": 37.785424,
    "lng": -122.464601,
    "year": 2025,
    "locality": "182 6th Ave, San Francisco US-CA 37.78542, -122.46460"
  },
  {
    "lat": 37.8051812,
    "lng": -122.4285507,
    "year": 2025,
    "locality": "Fort Mason"
  },
  {
    "lat": 37.7926519,
    "lng": -122.4564643,
    "year": 2025,
    "locality": "Presidio--El Polin Springs & Inspiration Point"
  },
  {
    "lat": 37.8051812,
    "lng": -122.4285507,
    "year": 2025,
    "locality": "Fort Mason"
  },
  {
    "lat": 37.7914728,
    "lng": -122.4273491,
    "year": 2025,
    "locality": "Lafayette Park (SF Co.)"
  },
  {
    "lat": 37.7914728,
    "lng": -122.4273491,
    "year": 2025,
    "locality": "Lafayette Park (SF Co.)"
  },
  {
    "lat": 37.7675937,
    "lng": -122.4688053,
    "year": 2025,
    "locality": "Golden Gate Park--Arboretum (San Francisco Botanical Garden)"
  },
  {
    "lat": 37.7926519,
    "lng": -122.4564643,
    "year": 2025,
    "locality": "Presidio--El Polin Springs & Inspiration Point"
  },
  {
    "lat": 37.7913372,
    "lng": -122.4379492,
    "year": 2025,
    "locality": "Alta Plaza Park"
  },
  {
    "lat": 37.7926519,
    "lng": -122.4564643,
    "year": 2025,
    "locality": "Presidio--El Polin Springs & Inspiration Point"
  },
  {
    "lat": 37.7732555,
    "lng": -122.4551675,
    "year": 2025,
    "locality": "Golden Gate Park--McLaren Lodge/Horseshoe Pits/Northeast Entrance"
  },
  {
    "lat": 37.8051812,
    "lng": -122.4285507,
    "year": 2025,
    "locality": "Fort Mason"
  },
  {
    "lat": 37.7952236,
    "lng": -122.3942045,
    "year": 2025,
    "locality": "San Francisco Ferry Building"
  },
  {
    "lat": 37.7696461,
    "lng": -122.4577332,
    "year": 2025,
    "locality": "Golden Gate Park--Hippie Hill & Tennis Complex"
  },
  {
    "lat": 37.8051812,
    "lng": -122.4285507,
    "year": 2025,
    "locality": "Fort Mason"
  },
  {
    "lat": 37.8051812,
    "lng": -122.4285507,
    "year": 2025,
    "locality": "Fort Mason"
  },
  {
    "lat": 37.7708844,
    "lng": -122.4638057,
    "year": 2025,
    "locality": "Golden Gate Park--Rhododendron Dell"
  },
  {
    "lat": 37.764744,
    "lng": -122.4390221,
    "year": 2025,
    "locality": "Corona Heights Park"
  },
  {
    "lat": 37.8051812,
    "lng": -122.4285507,
    "year": 2025,
    "locality": "Fort Mason"
  },
  {
    "lat": 37.776244,
    "lng": -122.4355888,
    "year": 2025,
    "locality": "Alamo Square"
  },
  {
    "lat": 37.8033686,
    "lng": -122.4552974,
    "year": 2025,
    "locality": "Presidio--Tunnel Tops"
  },
  {
    "lat": 37.7720609,
    "lng": -122.4588597,
    "year": 2025,
    "locality": "Golden Gate Park--Conservatory of Flowers"
  },
  {
    "lat": 37.7914728,
    "lng": -122.4273491,
    "year": 2025,
    "locality": "Lafayette Park (SF Co.)"
  },
  {
    "lat": 37.8051812,
    "lng": -122.4285507,
    "year": 2025,
    "locality": "Fort Mason"
  },
  {
    "lat": 37.7914728,
    "lng": -122.4273491,
    "year": 2025,
    "locality": "Lafayette Park (SF Co.)"
  },
  {
    "lat": 37.764744,
    "lng": -122.4390221,
    "year": 2025,
    "locality": "Corona Heights Park"
  },
  {
    "lat": 37.8051812,
    "lng": -122.4285507,
    "year": 2025,
    "locality": "Fort Mason"
  },
  {
    "lat": 37.8051812,
    "lng": -122.4285507,
    "year": 2025,
    "locality": "Fort Mason"
  },
  {
    "lat": 37.7219532,
    "lng": -122.4144256,
    "year": 2025,
    "locality": "McLaren Park--McNab Pond"
  },
  {
    "lat": 37.8056193,
    "lng": -122.447281,
    "year": 2025,
    "locality": "Little Marina Green Mudflats"
  },
  {
    "lat": 37.8047658,
    "lng": -122.4562311,
    "year": 2025,
    "locality": "Presidio--Crissy Field Lagoon"
  },
  {
    "lat": 37.7926519,
    "lng": -122.4564643,
    "year": 2025,
    "locality": "Presidio--El Polin Springs & Inspiration Point"
  },
  {
    "lat": 37.8051812,
    "lng": -122.4285507,
    "year": 2025,
    "locality": "Fort Mason"
  },
  {
    "lat": 37.8051812,
    "lng": -122.4285507,
    "year": 2025,
    "locality": "Fort Mason"
  },
  {
    "lat": 37.7914728,
    "lng": -122.4273491,
    "year": 2025,
    "locality": "Lafayette Park (SF Co.)"
  },
  {
    "lat": 37.7914728,
    "lng": -122.4273491,
    "year": 2025,
    "locality": "Lafayette Park (SF Co.)"
  },
  {
    "lat": 37.7675937,
    "lng": -122.4688053,
    "year": 2025,
    "locality": "Golden Gate Park--Arboretum (San Francisco Botanical Garden)"
  },
  {
    "lat": 37.7675937,
    "lng": -122.4688053,
    "year": 2025,
    "locality": "Golden Gate Park--Arboretum (San Francisco Botanical Garden)"
  },
  {
    "lat": 37.8051812,
    "lng": -122.4285507,
    "year": 2025,
    "locality": "Fort Mason"
  },
  {
    "lat": 37.764744,
    "lng": -122.4390221,
    "year": 2025,
    "locality": "Corona Heights Park"
  },
  {
    "lat": 37.7952032,
    "lng": -122.462883,
    "year": 2025,
    "locality": "Presidio--general (use for long traveling checklists encompassing multiple hotspots)"
  },
  {
    "lat": 37.7696461,
    "lng": -122.4841261,
    "year": 2025,
    "locality": "Golden Gate Park - long traveling lists - use more specific hotspots where appropriate"
  },
  {
    "lat": 37.7675937,
    "lng": -122.4688053,
    "year": 2025,
    "locality": "Golden Gate Park--Arboretum (San Francisco Botanical Garden)"
  },
  {
    "lat": 37.7708844,
    "lng": -122.4638057,
    "year": 2025,
    "locality": "Golden Gate Park--Rhododendron Dell"
  },
  {
    "lat": 37.7690675,
    "lng": -122.4377256,
    "year": 2025,
    "locality": "100 Alpine Terrace, San Francisco, California, US (37.769, -122.438)"
  },
  {
    "lat": 37.7926519,
    "lng": -122.4564643,
    "year": 2025,
    "locality": "Presidio--El Polin Springs & Inspiration Point"
  },
  {
    "lat": 37.8051812,
    "lng": -122.4285507,
    "year": 2025,
    "locality": "Fort Mason"
  },
  {
    "lat": 37.8033686,
    "lng": -122.4552974,
    "year": 2025,
    "locality": "Presidio--Tunnel Tops"
  },
  {
    "lat": 37.766981,
    "lng": -122.466765,
    "year": 2025,
    "locality": "San Francisco Botanical Garden, San Francisco US-CA 37.76698, -122.46676"
  },
  {
    "lat": 37.7976957,
    "lng": -122.4525833,
    "year": 2025,
    "locality": "Presidio--Sumner St."
  },
  {
    "lat": 37.7926519,
    "lng": -122.4564643,
    "year": 2025,
    "locality": "Presidio--El Polin Springs & Inspiration Point"
  },
  {
    "lat": 37.795274,
    "lng": -122.403205,
    "year": 2025,
    "locality": "Transamerica Pyramid, San Francisco US-CA 37.79527, -122.40321"
  },
  {
    "lat": 37.8051812,
    "lng": -122.4285507,
    "year": 2025,
    "locality": "Fort Mason"
  },
  {
    "lat": 37.8051812,
    "lng": -122.4285507,
    "year": 2025,
    "locality": "Fort Mason"
  },
  {
    "lat": 37.7914728,
    "lng": -122.4273491,
    "year": 2025,
    "locality": "Lafayette Park (SF Co.)"
  },
  {
    "lat": 37.7678376,
    "lng": -122.4414012,
    "year": 2025,
    "locality": "Buena Vista Park (SF Co.)"
  },
  {
    "lat": 37.7926519,
    "lng": -122.4564643,
    "year": 2025,
    "locality": "Presidio--El Polin Springs & Inspiration Point"
  },
  {
    "lat": 37.7678376,
    "lng": -122.4414012,
    "year": 2025,
    "locality": "Buena Vista Park (SF Co.)"
  },
  {
    "lat": 37.8051812,
    "lng": -122.4285507,
    "year": 2025,
    "locality": "Fort Mason"
  },
  {
    "lat": 37.7675937,
    "lng": -122.4688053,
    "year": 2025,
    "locality": "Golden Gate Park--Arboretum (San Francisco Botanical Garden)"
  },
  {
    "lat": 37.7817,
    "lng": -122.4255848,
    "year": 2025,
    "locality": "Jefferson Square Park"
  },
  {
    "lat": 37.797507,
    "lng": -122.395687,
    "year": 2025,
    "locality": "3 The Embarcadero, San Francisco US-CA 37.79751, -122.39569"
  },
  {
    "lat": 37.8051812,
    "lng": -122.4285507,
    "year": 2025,
    "locality": "Fort Mason"
  },
  {
    "lat": 37.7914728,
    "lng": -122.4273491,
    "year": 2025,
    "locality": "Lafayette Park (SF Co.)"
  },
  {
    "lat": 37.7395667,
    "lng": -122.4412966,
    "year": 2025,
    "locality": "Glen Canyon Park"
  },
  {
    "lat": 37.764744,
    "lng": -122.4390221,
    "year": 2025,
    "locality": "Corona Heights Park"
  },
  {
    "lat": 37.7794664,
    "lng": -122.4520683,
    "year": 2025,
    "locality": "USF--Lone Mountain Campus"
  },
  {
    "lat": 37.7732555,
    "lng": -122.4551675,
    "year": 2025,
    "locality": "Golden Gate Park--McLaren Lodge/Horseshoe Pits/Northeast Entrance"
  },
  {
    "lat": 37.7970641,
    "lng": -122.4556357,
    "year": 2025,
    "locality": "Presidio--Tennessee Hollow"
  },
  {
    "lat": 37.8032484,
    "lng": -122.4060202,
    "year": 2025,
    "locality": "Telegraph Hill"
  },
  {
    "lat": 37.7675937,
    "lng": -122.4688053,
    "year": 2025,
    "locality": "Golden Gate Park--Arboretum (San Francisco Botanical Garden)"
  },
  {
    "lat": 37.7921172,
    "lng": -122.4121356,
    "year": 2025,
    "locality": "Huntington Park"
  },
  {
    "lat": 37.7926519,
    "lng": -122.4564643,
    "year": 2025,
    "locality": "Presidio--El Polin Springs & Inspiration Point"
  },
  {
    "lat": 37.7696381,
    "lng": -122.4323026,
    "year": 2025,
    "locality": "Duboce Park"
  },
  {
    "lat": 37.8051812,
    "lng": -122.4285507,
    "year": 2025,
    "locality": "Fort Mason"
  },
  {
    "lat": 37.7675937,
    "lng": -122.4688053,
    "year": 2025,
    "locality": "Golden Gate Park--Arboretum (San Francisco Botanical Garden)"
  },
  {
    "lat": 37.7675937,
    "lng": -122.4688053,
    "year": 2025,
    "locality": "Golden Gate Park--Arboretum (San Francisco Botanical Garden)"
  },
  {
    "lat": 37.7675937,
    "lng": -122.4688053,
    "year": 2025,
    "locality": "Golden Gate Park--Arboretum (San Francisco Botanical Garden)"
  },
  {
    "lat": 37.7735218,
    "lng": -122.3948193,
    "year": 2025,
    "locality": "Mission Creek (SF Co.)"
  },
  {
    "lat": 37.7926519,
    "lng": -122.4564643,
    "year": 2025,
    "locality": "Presidio--El Polin Springs & Inspiration Point"
  },
  {
    "lat": 37.7696461,
    "lng": -122.4841261,
    "year": 2025,
    "locality": "Golden Gate Park - long traveling lists - use more specific hotspots where appropriate"
  },
  {
    "lat": 37.7817,
    "lng": -122.4255848,
    "year": 2025,
    "locality": "Jefferson Square Park"
  },
  {
    "lat": 37.7924088,
    "lng": -122.4645519,
    "year": 2025,
    "locality": "Presidio--Golf Course"
  },
  {
    "lat": 37.795997,
    "lng": -122.421055,
    "year": 2025,
    "locality": "Helen Wills Park Tennis Court, San Francisco US-CA 37.79600, -122.42106"
  },
  {
    "lat": 37.7678376,
    "lng": -122.4414012,
    "year": 2025,
    "locality": "Buena Vista Park (SF Co.)"
  },
  {
    "lat": 37.8032484,
    "lng": -122.4060202,
    "year": 2025,
    "locality": "Telegraph Hill"
  },
  {
    "lat": 37.7506634,
    "lng": -122.4049687,
    "year": 2025,
    "locality": "Potrero del Sol Park"
  },
  {
    "lat": 37.773539,
    "lng": -122.441031,
    "year": 2025,
    "locality": "The Panhandle, Golden Gate Park"
  },
  {
    "lat": 37.7678376,
    "lng": -122.4414012,
    "year": 2025,
    "locality": "Buena Vista Park (SF Co.)"
  },
  {
    "lat": 37.8051812,
    "lng": -122.4285507,
    "year": 2025,
    "locality": "Fort Mason"
  },
  {
    "lat": 37.8051812,
    "lng": -122.4285507,
    "year": 2025,
    "locality": "Fort Mason"
  },
  {
    "lat": 37.8032484,
    "lng": -122.4060202,
    "year": 2025,
    "locality": "Telegraph Hill"
  },
  {
    "lat": 37.8051812,
    "lng": -122.4285507,
    "year": 2025,
    "locality": "Fort Mason"
  },
  {
    "lat": 37.7668113,
    "lng": -122.3963267,
    "year": 2025,
    "locality": "Daggett Park"
  },
  {
    "lat": 37.7968336,
    "lng": -122.4533746,
    "year": 2025,
    "locality": "Presidio--Lover's Ln."
  },
  {
    "lat": 37.8051812,
    "lng": -122.4285507,
    "year": 2025,
    "locality": "Fort Mason"
  },
  {
    "lat": 37.764744,
    "lng": -122.4390221,
    "year": 2026,
    "locality": "Corona Heights Park"
  },
  {
    "lat": 37.7429271,
    "lng": -122.413289,
    "year": 2026,
    "locality": "Bernal Hill"
  },
  {
    "lat": 37.7618976,
    "lng": -122.4452421,
    "year": 2026,
    "locality": "17th St & Roosevelt"
  },
  {
    "lat": 37.8033686,
    "lng": -122.4552974,
    "year": 2026,
    "locality": "Presidio--Tunnel Tops"
  },
  {
    "lat": 37.764315,
    "lng": -122.438614,
    "year": 2026,
    "locality": "199 Museum Way, San Francisco, California, US (37.764, -122.439)Randall Museum Randall Museum"
  },